stationCode,stationName,lat,lon,fid
G1966,Na,14.925,120.725,G1966
G1967,Na,15.375,120.475,G1967
G1969,Na,7.125,124.375,G1969
G1970,Na,7.125,124.775,G1970
G4608,Pototan Jalaur Bridge,10.925,122.675,G4608
G4611,Nabua,13.375,123.325,G4611
G4630,Tuguegarao Buntun Bridge,17.625,121.675,G4630
G4945,Talacogon Municipal Hall,8.425,125.775,G4945
G5368,Nia Pumping Station,8.875,125.575,G5368
G5369,Dao Bridge,11.425,122.725,G5369
