stationCode,stationName,lat,lon,fid
G5075,Mpologoma at Budumba (82217),0.75,33.75,G5075
G5160,Mayanja (83218),0.649999976,32.15000153,G5160
G5189,Muzizi (85211),0.850000024,30.75,G5189
G5196,Akokorio at Uganda Gauge,1.75,33.84999847,G5196
G5220,Manafwa at Butaleja (82212),0.949999988,34.04999924,G5220
G5227,Nkusi (85212),1.049999952,30.75,G5227
G5230,SIO RIVER (1AH01),0.349999994,34.04999924,G5230
G5317,Mitano (84267),-0.850000024,29.85000038,G5317
