lon,lat,fid,name,description,type,Administrative region,Date of installation
33.9438643,-9.9969699,31497,Vokolani lwasho borehole 05, Along earth road from mwenilondo school to the lake,Borehole or tubewell,"TA Kyungu, Karonga, Malawi",2/13/2002
33.6542962,-11.2374927,31481, Chigondondongo 2 water point, CLose to chigondondongo village,Borehole or tubewell,"TA Mpherembe, Mzimba, Malawi",6/14/2007
33.6622342,-11.1557367,28389,Kazuni primary school borehore , Close to khuyu road ,Borehole or tubewell,"TA Mtwalo, Mzimba, Malawi",10/10/2007
33.6155237,-11.3189607,19659,Mufomubi Hara borehore , Close to Mango tree,Borehole or tubewell,"TA Mpherembe, Mzimba, Malawi",2/21/2000
33.616177,-11.3633476,6141,Chibula mandhlopa borehore , Close to mayula school road ,Borehole or tubewell,"TA Mpherembe, Mzimba, Malawi",5/30/2004
33.454707,-11.4807472,27154,Mlambo Tembo borehole, Near big mango tree,Borehole or tubewell,"TA Chindi, Mzimba, Malawi",8/25/2007
33.7482606,-11.3971188,26358,Ezondweni Primary school Borehole 1, Near Ezondweni Primary school ,Borehole or tubewell,"TA Mtwalo, Mzimba, Malawi",8/15/2007
33.6410403,-10.3665957,34196,Sankhwa borehole, Near kaholo hills,Borehole or tubewell,"TA Nthalire, Chitipa, Malawi",8/16/2002
33.9088016,-9.9532212,2322,Ngaya Abandoned Borehole , Near Karonga District Hospital ,Borehole or tubewell,"Karonga Town, Karonga, Malawi",1/1/1990
33.9014668,-9.9697835,20552,Mwamondwe borehole, Near karonga Karonga teachers training college,Borehole or tubewell,"Karonga Town, Karonga, Malawi",2/25/2002
33.8975702,-9.9753336,24475,Mwamalopa 2 chanthenda borehole 3, Near Karonga Teachers Training College football pitch,Borehole or tubewell,"Karonga Town, Karonga, Malawi",1/1/1988
34.0769356,-10.2031854,29271,Gumi Stage Borehole, Near M1 Road,Borehole or tubewell,"TA Kyungu, Karonga, Malawi",4/11/2001
33.9229543,-9.9642297,29569,Sichula Borehole , Near MASAF Road ,Borehole or tubewell,"Karonga Town, Karonga, Malawi",1/1/1985
33.9213027,-10.0046489,30607,Sisi Borehole , Near MASAF Road ,Borehole or tubewell,"TA Kyungu, Karonga, Malawi",1/1/1998
33.5874331,-11.6533176,31586,Eria ndawambi Gausi borehole , Near Mbelwa farm road ,Borehole or tubewell,"TA Chindi, Mzimba, Malawi",1/6/2000
33.8769934,-10.0253248,19068,Ngindekimo borehole 1, Near mlombwa tree,Borehole or tubewell,"TA Kyungu, Karonga, Malawi",3/1/2004
33.5044229,-11.8902245,29942,Jesus Luhana borehole , Near Mvakule Agriculture extension staff house,Borehole or tubewell,"TA M'Mbelwa, Mzimba, Malawi",2/23/1992
33.9281403,-9.9999594,6856,Mwangolera principal borehole 9, Near mwenilondo christ embassy church,Borehole or tubewell,"TA Kyungu, Karonga, Malawi",5/30/2007
33.64016,-10.3517259,30094,Nthlire centre borehole, Near New Apostolic church,Borehole or tubewell,"TA Nthalire, Chitipa, Malawi",8/18/1994
33.3938881,-11.8095742,15673,Mdika Kumwenda borehole , Near ngowe trees,Borehole or tubewell,"TA M'Mbelwa, Mzimba, Malawi",3/8/2000
33.3229895,-12.2233422,19129,Milingo Joloji borehole, Near ST Kizito Roman Catheric church,Borehole or tubewell,"TA M'Mbelwa, Mzimba, Malawi",9/10/1998
33.491043,-11.5055893,31344,Kamubanga primary school borehole, Near the school ,Borehole or tubewell,"TA Chindi, Mzimba, Malawi",7/10/2006
33.8653936,-9.943946,30666,Lasha 3 borehole, Opposite Chilambiro School,Borehole or tubewell,"TA Kyungu, Karonga, Malawi",8/29/1995
34.0461109,-10.8845821,28915,Phwezi Market BH,@ Phwezi Market along M1 Road,Borehole or tubewell,"SC Mwankhunikira, Rumphi, Malawi",
33.5543604,-11.7666393,7353,Zawanje Mphepo borehole ,1 km to the  west of the  village ,Borehole or tubewell,"TA Chindi, Mzimba, Malawi",1/24/2018
33.4158138,-11.4913223,5362,German juwa borehole,1 m from the road to mzimba,Borehole or tubewell,"TA Chindi, Mzimba, Malawi",6/10/1994
33.9231575,-11.3819913,7802,Mkowera village 1  village borehole ,1.5km south of Ng'ongo estate ,Borehole or tubewell,"TA Mtwalo, Mzimba, Malawi",12/10/2007
33.8910585,-11.4118424,25427,Taonana  Shaba village borehole ,1.5km West of Ekwaiweni Trading Centre ,Borehole or tubewell,"TA Mtwalo, Mzimba, Malawi",10/27/2016
33.4809837,-11.6064796,16180,Masango Nyirenda Village Borehole,10 metres away from Masango Nyirenda Borehole,Borehole or tubewell,"TA Chindi, Mzimba, Malawi",5/23/1995
33.4819161,-11.6889565,31104,Kapelepeta Mbongo Village Borehole,10 metres away from road to Bulala,Borehole or tubewell,"TA Chindi, Mzimba, Malawi",6/4/2000
33.4097501,-11.6274863,19689,Joram Nyirongo Borehole 1,10 metres away from road to Euthini,Borehole or tubewell,"TA Chindi, Mzimba, Malawi",6/26/2009
33.403999,-11.6446936,18943,Thale FP School Borehole 1,10 metres away from road to Euthini,Borehole or tubewell,"TA Chindi, Mzimba, Malawi",8/30/2018
33.4978084,-11.7179575,17277,Tadeo Mseketa  Village Borehole,10 metres away on road to Malinyete,Borehole or tubewell,"TA Chindi, Mzimba, Malawi",4/3/2011
33.5657226,-11.4478851,20906,Chimukunguli Gondwe borehole ,10 metres from  mango tree,Borehole or tubewell,"TA Chindi, Mzimba, Malawi",4/2/2007
33.4909965,-11.4514022,5451,Robert Mtika borehole,10 metres from Bawa  tree,Borehole or tubewell,"TA Chindi, Mzimba, Malawi",5/14/1993
33.5699857,-11.422061,13510,Mtambalika Mkandawire borehole ,10 metres from Kachere tree ,Borehole or tubewell,"TA Chindi, Mzimba, Malawi",5/30/2007
33.4598047,-11.449513,28362,Zakeyo Mtambo Borehole ,10 metres from Kaherere school Road ,Borehole or tubewell,"TA Chindi, Mzimba, Malawi",12/3/1997
33.5122053,-11.4269105,29952,Madumula Soko borehole ,10 metres from Kampala road,Borehole or tubewell,"TA Chindi, Mzimba, Malawi",6/15/2007
33.4750606,-11.4511018,13453,Kaherere Primary School borehole,10 metres from Kawizi  tree ,Borehole or tubewell,"TA Chindi, Mzimba, Malawi",2/9/2013
33.4556041,-11.4427618,29079,Kabumba Kalungu borehole,10 metres from mango tree,Borehole or tubewell,"TA Chindi, Mzimba, Malawi",9/12/2018
33.4999948,-11.4358101,33865,Bandawe Luhanga borehole ,10 metres from mango tree ,Borehole or tubewell,"TA Chindi, Mzimba, Malawi",11/24/2007
33.5375977,-11.5150421,18586,Zachilikana Mazula borehole ,10 metres from mango tree ,Borehole or tubewell,"TA Chindi, Mzimba, Malawi",9/19/1997
33.4491447,-11.4261153,18931,Mzambazi primary school borehole ,10 metres from Melayina tree,Borehole or tubewell,"TA Chindi, Mzimba, Malawi",12/26/2001
33.4508595,-11.4278078,17737,Mzambazi Community Hospital water system ,10 metres from Melayina tree ,Borehole or tubewell,"TA Chindi, Mzimba, Malawi",8/22/2012
33.7545399,-11.9290806,6180,RAIPLY Mosque Borehole ,10 metres from Mosque Borehole ,Borehole or tubewell,"TA Mzikubola, Mzimba, Malawi",9/16/2017
33.4466807,-11.6773302,34855,Bulala Police Borehole,10 metres Near Bulala Police Unit,Borehole or tubewell,"TA Chindi, Mzimba, Malawi",7/1/2019
33.4060164,-11.6421811,19687,Chimbavi Village Borehole,100 metres away from road to Euthini,Borehole or tubewell,"TA Chindi, Mzimba, Malawi",9/4/2007
33.4449356,-11.3279359,2786,Kavisopo School borehole,100 metres from Kavisopo School ,Borehole or tubewell,"TA Chindi, Mzimba, Malawi",6/15/2014
33.4831869,-11.6600972,31074,Chapangalika Mvula Borehole,100 metres from Road to Kamwala,Borehole or tubewell,"TA Chindi, Mzimba, Malawi",3/11/2015
33.5350032,-11.8732946,14594,Mphongo CDSS  borehole ,100 my away from mphongo primary school football ground ,Borehole or tubewell,"TA M'Mbelwa, Mzimba, Malawi",11/19/2007
33.3651106,-11.5379514,123,Kanyankhunde school borehole 2,100 my from kanyankhunde primary school,Borehole or tubewell,"TA Chindi, Mzimba, Malawi",3/20/1993
33.4776257,-12.2493765,1222,Zatuba Zimba Village water point,100metres to the south of zatuba Zimba Village ,Borehole or tubewell,"TA Mzukuzuku, Mzimba, Malawi",10/21/1998
33.6185557,-11.0688419,5144,Mtanila borehole ,10m from the road,Borehole or tubewell,"TA Chikulamayembe, Rumphi, Malawi",1/1/2012
33.4476142,-11.4309712,26867,Chitowo Kumwenda borehole 2,11 metres from Chikuyu tree ,Borehole or tubewell,"TA Chindi, Mzimba, Malawi",6/18/1993
33.5021506,-11.4499639,6264,Valera Bota borehole ,12 metres from  senderera tree ,Borehole or tubewell,"TA Chindi, Mzimba, Malawi",5/6/2002
33.5600064,-11.5009961,13403,Chikoya Njorwa borehole ,12 metres from chizutu tree,Borehole or tubewell,"TA Chindi, Mzimba, Malawi",9/22/1989
33.5783517,-11.5450216,15481,Isaac Mbuluma borehole ,12 metres from Kafukule road ,Borehole or tubewell,"TA Chindi, Mzimba, Malawi",10/14/2005
33.3844057,-11.5504674,31701,Kamkondo nchama borehole,120 m from grave yard,Borehole or tubewell,"TA Chindi, Mzimba, Malawi",10/20/2006
33.3535486,-11.485603,35131,Kamangadazi ng'andu borehole,120 m from graveyard,Borehole or tubewell,"TA Chindi, Mzimba, Malawi",9/6/2007
33.7269905,-11.0645149,29630,Chikwetu borehole ,1200 metres away from Betele primary school ,Borehole or tubewell,"TA Chikulamayembe, Rumphi, Malawi",10/15/2016
33.4073709,-11.4457895,31732,Chilambe Mkandawire borehole ,120m from graveyard ,Borehole or tubewell,"TA Chindi, Mzimba, Malawi",
33.5292627,-11.4872011,13451,Chinjoka Chimalilo borehole ,14 metres from Mango tree ,Borehole or tubewell,"TA Chindi, Mzimba, Malawi",11/15/2007
33.4901248,-11.348663,16158,Kapando primary school borehole ,15 metres  from Kapando TDC,Borehole or tubewell,"TA Chindi, Mzimba, Malawi",10/1/2002
33.5483576,-11.455365,20624,Alufeyo Mpherembe borehole ,15 metres from Kawumbo tree,Borehole or tubewell,"TA Chindi, Mzimba, Malawi",6/8/2007
33.5368568,-11.5212385,18580,Daniel Jere borehole ,15 metres from kawumbo tree,Borehole or tubewell,"TA Chindi, Mzimba, Malawi",9/11/1997
33.5182336,-11.4497532,2996,Chitengamani Bota borehole ,15 metres from Mango tree ,Borehole or tubewell,"TA Chindi, Mzimba, Malawi",7/28/2002
33.5152912,-11.5005335,18585,Kamuchocho Nkhata borehole ,15 metres from mango tree ,Borehole or tubewell,"TA Chindi, Mzimba, Malawi",8/16/2005
33.5238442,-11.4638491,5723,Thomu Chirambo borehole ,15 metres from mlombe tree,Borehole or tubewell,"TA Chindi, Mzimba, Malawi",9/16/2000
33.5360767,-11.4161227,3342,Kayidoke Luhanga borehole ,15 metres from Mpapa tree,Borehole or tubewell,"TA Chindi, Mzimba, Malawi",5/30/2007
33.531892,-11.486957,13440,Chimbizga Gondwe  borehole ,15 metres from Mtende road ,Borehole or tubewell,"TA Chindi, Mzimba, Malawi",8/9/1998
33.4562412,-11.449027,6198,Store Nkhata borehole ,15 metres from Mtende road ,Borehole or tubewell,"TA Chindi, Mzimba, Malawi",11/3/2007
33.5211235,-11.493589,2368,Kapoka primary school borehole ,15 metres from mtondo tree ,Borehole or tubewell,"TA Chindi, Mzimba, Malawi",3/20/2019
33.4542708,-11.4364611,29081,Zinyongo Chilasa borehole,15 metres fromy muwanga tree,Borehole or tubewell,"TA Chindi, Mzimba, Malawi",7/17/2001
33.3963561,-11.4561444,14953,William shumba borehole,150 m from grave yard ,Borehole or tubewell,"TA Chindi, Mzimba, Malawi",7/10/2015
33.4716248,-11.3770456,16796,James Kamtondoli Gondwe borehole,150 metres from Chamaji Catholic Church ,Borehole or tubewell,"TA Chindi, Mzimba, Malawi",10/17/2013
33.4665405,-11.3887353,16794,Simeon  Ndhlovu borehole ,150 metres from Kaviyombo primary school ,Borehole or tubewell,"TA Chindi, Mzimba, Malawi",9/24/2004
33.6133793,-11.0226723,28607,Kalibwe borehole,150m from Kasele School,Borehole or tubewell,"TA Chikulamayembe, Rumphi, Malawi",8/15/1967
33.602417,-11.0622193,5262,Mtanila 2 borehole ,150m from the road,Borehole or tubewell,"TA Chikulamayembe, Rumphi, Malawi",1/1/2009
33.590448,-11.0539061,4783,Tipokelere borehole ,150m from the road,Borehole or tubewell,"TA Chikulamayembe, Rumphi, Malawi",1/1/1994
33.4845061,-11.351363,18720,David Nyirenda borehole ,17 metres from mpapadende tree ,Borehole or tubewell,"TA Chindi, Mzimba, Malawi",9/18/1998
33.4769759,-11.4452355,29295,Chilongozi Gondwe borehole ,18 metres from  from  Mujoriginal tree,Borehole or tubewell,"TA Chindi, Mzimba, Malawi",10/30/2006
33.5749935,-11.525567,15480,Mtantha primary school borehole ,18 metres from kachere tree,Borehole or tubewell,"TA Chindi, Mzimba, Malawi",9/14/1999
33.5869543,-11.5103057,2695,Kamtande Ngwira borehole ,18 metres from kachere tree ,Borehole or tubewell,"TA Mtwalo, Mzimba, Malawi",7/16/1998
33.5480023,-11.5260796,18575,Dingiswayo Khosa borehole ,18 metres from mango tree ,Borehole or tubewell,"TA Chindi, Mzimba, Malawi",9/28/2006
33.5466218,-11.4740651,18357,Hlavani Nyirenda borehole ,18 metres from Melayina tree ,Borehole or tubewell,"TA Chindi, Mzimba, Malawi",11/7/2007
33.4422726,-12.0773976,6162,Mijere borehole,1km form etchiyeni primary,Borehole or tubewell,"TA Mzukuzuku, Mzimba, Malawi",8/30/1999
33.4295296,-12.0837352,24937,Chambazi nyirongo borehole,1km from etchiyeni  primary ,Borehole or tubewell,"TA Mzukuzuku, Mzimba, Malawi",2/18/1996
33.8979736,-11.4591219,7524,Mr. Alick Lungu borehole ,1km north west of Chipapa Primary school ,Borehole or tubewell,"SC Kampingo Sibande, Mzimba, Malawi",10/17/2007
33.7148233,-10.9680437,32789,Kajiwunde borehole ,2 kilometres from mwachilimba community ground ,Borehole or tubewell,"TA Chikulamayembe, Rumphi, Malawi",3/4/2000
33.4516664,-11.4260232,29083,Mzambazi Community Hospital  borehole ,2 metres from Mahule  road ,Borehole or tubewell,"TA Chindi, Mzimba, Malawi",6/13/2008
33.4158858,-11.4480295,26181,Chamunya phiri borehole,2 mitres from the road to euthini secondary school,Borehole or tubewell,"TA Chindi, Mzimba, Malawi",8/12/2017
33.4376808,-11.3404169,18783,Chinombo Jere borehole ,2.8 kilometres from Kavisopo School ,Borehole or tubewell,"TA Chindi, Mzimba, Malawi",4/10/1996
33.5008735,-11.4019591,2559,Chimango Primary school borehole,20 meters from Chimango Primary school ,Borehole or tubewell,"TA Chindi, Mzimba, Malawi",6/17/1994
33.5032104,-11.4612465,29297,Mambongo Nyirenda borehole ,20 meters from mango tree,Borehole or tubewell,"TA Chindi, Mzimba, Malawi",10/16/1998
33.5744969,-11.5201554,4144,Kamugowo Ngwira borehole ,20 meters from mpapa tree ,Borehole or tubewell,"TA Chindi, Mzimba, Malawi",3/3/2017
33.49987,-11.4484889,3378,Zowe primary school borehole ,20 meters from mpapadende tree,Borehole or tubewell,"TA Chindi, Mzimba, Malawi",5/14/1993
33.4062754,-11.657724,35138,Chibula Nkhoma Village Borehole,20 metres a way from Road to Kamchocho Trading,Borehole or tubewell,"TA Chindi, Mzimba, Malawi",6/7/1994
33.4486768,-11.6786586,31923,Bulala Health Centre Borehole,20 metres away from Bulala Health Centre,Borehole or tubewell,"TA Chindi, Mzimba, Malawi",3/1/1993
33.4798038,-11.5616907,16188,Chaboli FP School Borehole 2,20 metres away from Chaboli FP School,Borehole or tubewell,"TA Chindi, Mzimba, Malawi",3/30/2001
33.486979,-11.6135739,16181,Kabowozga FP School Borehole,20 metres away from Kabowozga FP School,Borehole or tubewell,"TA Chindi, Mzimba, Malawi",6/23/1999
33.4033425,-11.6465084,18980,Thale FP School Borehole 2,20 metres away from road to Euthin,Borehole or tubewell,"TA Chindi, Mzimba, Malawi",6/13/1998
33.4187156,-11.6659291,11549,Kamchocho Village Borehole 1,20 metres away on road to Bulala,Borehole or tubewell,"TA Chindi, Mzimba, Malawi",6/14/1988
33.4735397,-11.5972422,16185,Kachigoga Jere Village Borehole,20 metres away on road to Kamwala,Borehole or tubewell,"TA Chindi, Mzimba, Malawi",5/26/2006
33.4432402,-11.6795853,11553,Chidyake Gama Village Borehole,20 metres from Bulala Agriculture Offices,Borehole or tubewell,"TA Chindi, Mzimba, Malawi",1/5/1999
33.3851032,-11.7251863,20510,Chiseng'ezi FP School Borehole,20 metres from Chiseng'ezi road,Borehole or tubewell,"TA Chindi, Mzimba, Malawi",9/18/2001
33.4112811,-11.6605842,35157,Kamchocho Admarc Borehole,20 metres from Kamchocho Admarc,Borehole or tubewell,"TA Chindi, Mzimba, Malawi",9/15/1993
33.4196163,-11.67094,32059,Kamchocho Village Borehole 2,20 metres from Road to Khonje Village,Borehole or tubewell,"TA Chindi, Mzimba, Malawi",2/12/2001
33.5366019,-11.8757939,11598,Mphongo primary school borehole ,200 m away to the east of Mphongo primary school ,Borehole or tubewell,"TA M'Mbelwa, Mzimba, Malawi",1/30/2000
33.9428985,-11.5353929,16966,zimbabwe borehole ,200 meters from Nkhata bay to Mzimba  tarmark road ,Borehole or tubewell,"SC Kampingo Sibande, Mzimba, Malawi",4/8/1997
33.8264538,-11.1956536,199,Chigezelo Chibaka borehole ,200m behind roman Catholic Church ,Borehole or tubewell,"TA Mtwalo, Mzimba, Malawi",8/1/2019
33.3746174,-11.5689597,23765,Luji phiri borehole,200m from St benard school,Borehole or tubewell,"TA Chindi, Mzimba, Malawi",6/13/2007
33.5990374,-11.9399686,31869,Zafaniyah Mgemezulu,200m from zafaniya Mgemezulu house towards Kazomba behind an anthill to the left,Borehole or tubewell,"TA Mzikubola, Mzimba, Malawi",1/1/1998
33.9513562,-10.9327702,17459,Kabaza borehole ,20m away from the road to mhuju ,Borehole or tubewell,"STA Chisovya, Rumphi, Malawi",3/22/2015
33.5362885,-11.467655,34991,Chitandika Jumbo borehole,25 metres from mango tree ,Borehole or tubewell,"TA Chindi, Mzimba, Malawi",6/5/2007
33.5331344,-11.4662313,12463,Mchingasanya Primary school borehole,25 metres from Melayina tree,Borehole or tubewell,"TA Chindi, Mzimba, Malawi",10/23/1998
33.5505296,-11.4966618,19921,Mtende Health Centre borehole ,25 metres from mpotolo tree,Borehole or tubewell,"TA Chindi, Mzimba, Malawi",7/21/2003
33.4914943,-11.4331108,450,Kamunthambani Mtonga borehole ,25 metres from muchemani tree,Borehole or tubewell,"TA Chindi, Mzimba, Malawi",6/15/2007
33.5527737,-11.5039909,15483,Gawuti Njorwa borehole ,25 metres from muwula tree,Borehole or tubewell,"TA Chindi, Mzimba, Malawi",6/10/2006
33.4481194,-11.4219749,961,Mzambazi Community Day Secondary School borehole ,25 metres from Mzuzu road ,Borehole or tubewell,"TA Chindi, Mzimba, Malawi",6/22/2007
33.468511,-11.4552492,1583,Kavalo Nyirental borehole,25 metres from Orange tree,Borehole or tubewell,"TA Chindi, Mzimba, Malawi",11/3/2007
33.4494462,-11.4261307,21071,Mzambazi primary school borehole ,25 metres from sender erase tree,Borehole or tubewell,"TA Chindi, Mzimba, Malawi",11/4/2019
33.5000361,-11.4496766,22100,United  Methodist Church  borehole ,25 metres from Sungwi tree ,Borehole or tubewell,"TA Chindi, Mzimba, Malawi",7/23/2007
33.4747424,-11.4580754,1833,Katawazika Munthali borehole,28 metres from Melayina tree,Borehole or tubewell,"TA Chindi, Mzimba, Malawi",10/22/1999
33.9211449,-10.9848015,31753,Khwalala,2km away from bera,Borehole or tubewell,"STA Chisovya, Rumphi, Malawi",6/2/2017
33.7832013,-10.9408505,13861,Mzongano borehole ,3 kilometres away from lupalamizi primary school borehole ,Borehole or tubewell,"TA Chikulamayembe, Rumphi, Malawi",7/21/2004
33.7742294,-10.9305942,3274,Vwalawuheni borehole ,3 kilometres away from mjuma but near lupalamizi primary school ,Borehole or tubewell,"TA Chikulamayembe, Rumphi, Malawi",7/26/1994
33.5784707,-11.8889996,31832,Nqumayo borehole yamikani Kakhome ,3 km from njiri river ,Borehole or tubewell,"TA M'Mbelwa, Mzimba, Malawi",1/1/2000
33.4481907,-11.1948735,5318,Zaro primary school borehole,30 m from the haend teachers office,Borehole or tubewell,"TA Mpherembe, Mzimba, Malawi",10/13/2007
33.7461289,-10.9766394,29671,Chilongozi borehole ,30 meters away before Bolero magestrate court ,Borehole or tubewell,"TA Chikulamayembe, Rumphi, Malawi",1/1/1954
33.3795967,-11.7279723,3817,Kayuni Village Borehole,30 metres away from Blue Gum Trees,Borehole or tubewell,"TA Chindi, Mzimba, Malawi",9/10/2007
33.4603406,-11.7138957,20664,Kunawani Banda Village Borehole,30 metres away from mangoe trees,Borehole or tubewell,"TA Chindi, Mzimba, Malawi",12/4/2007
33.4452295,-11.6864242,6955,Yobe Gama Village Borehole 2,30 metres away from Mangoe Trees,Borehole or tubewell,"TA Chindi, Mzimba, Malawi",8/2/2007
33.4559437,-11.675867,20271,David Tembo Village Borehole,30 metres away from road to Bulala,Borehole or tubewell,"TA Chindi, Mzimba, Malawi",5/20/2008
33.4404334,-11.6766389,32122,Jimu Luwe Village Borehole,30 metres away on road to Bulala,Borehole or tubewell,"TA Chindi, Mzimba, Malawi",6/5/2002
33.5446246,-11.4051831,20620,Kapilingu Primary School borehole ,30 metres from  Kapilingu primary school borehole ,Borehole or tubewell,"TA Chindi, Mzimba, Malawi",4/26/1993
33.4467895,-11.6795825,32456,Yobe Gama Village Borehole 1,30 metres from Bulala River,Borehole or tubewell,"TA Chindi, Mzimba, Malawi",4/3/1993
33.4518282,-11.4292035,2907,Mzambazi Community Hospital borehole 2,30 metres from Mahule road ,Borehole or tubewell,"TA Chindi, Mzimba, Malawi",9/20/2008
33.5799588,-11.5175343,34988,Musikawanthu Msetemail borehole ,30 metres from mtantha road ,Borehole or tubewell,"TA Chindi, Mzimba, Malawi",3/1/2017
33.4465123,-11.5230592,30889,Chamunguma primary school borehole,300 from school,Borehole or tubewell,"TA Chindi, Mzimba, Malawi",3/3/1971
33.9420352,-11.5345667,6323,Lusangazi forest borehole 1,300 Meters away from Lusangazi CCAP Church ,Borehole or tubewell,"SC Kampingo Sibande, Mzimba, Malawi",11/24/2010
33.6287613,-11.9741778,31394,Daniel  Gausi Borehole ,300 meters south of Daniel  Gausi House along Daniel  Gausi  to Matewu Full Primary  School  MASAF road,Borehole or tubewell,"TA Mzikubola, Mzimba, Malawi",2/26/2000
33.9204472,-10.9990619,6143,Dolola water point,300m away from Lukali trading center ,Borehole or tubewell,"STA Chisovya, Rumphi, Malawi",1/20/2017
33.4824838,-11.5705849,14935,Lufo Khwinika Village Borehole,32 metres on road to Chaboli Village,Borehole or tubewell,"TA Chindi, Mzimba, Malawi",6/2/1998
33.4309539,-11.6693624,18958,Jimu Luwe Village Borehole 2,35 metres away from road to Kamchocho Trading Centre,Borehole or tubewell,"TA Chindi, Mzimba, Malawi",7/7/1999
33.5288683,-11.4034639,19055,Chidesa Chipeta borehole ,35 metres from Kapilingu road ,Borehole or tubewell,"TA Chindi, Mzimba, Malawi",6/4/2007
33.4514868,-11.4276106,29082,Mzambazi Community Hospital borehole ,35 metres from Mahule road ,Borehole or tubewell,"TA Chindi, Mzimba, Malawi",7/14/1994
33.5941011,-10.8527592,3479, Nundwe Borehole ,35m away left Thazima Bowe Turnoff,Borehole or tubewell,"TA Chikulamayembe, Rumphi, Malawi",9/23/2002
33.9217461,-11.0022353,3045,Lukali  FP school Water point,3km away from njakwa bridge towards ng'onga trading center,Borehole or tubewell,"STA Chisovya, Rumphi, Malawi",1/15/1999
33.933291,-11.4020011,19826,Williford Nyirongo borehole,3km West of Dunduzu primary school ,Borehole or tubewell,"TA Mtwalo, Mzimba, Malawi",7/1/2017
33.4822552,-11.4312172,22092,Chiyanga Chimaliro borehole,4 metres from Yakuwata turn off to Zowe road ,Borehole or tubewell,"TA Chindi, Mzimba, Malawi",6/12/2007
33.5098687,-11.8647955,35756,Saulosi Tembo,40 m away from Chipangano Church ,Borehole or tubewell,"TA M'Mbelwa, Mzimba, Malawi",1/1/2000
33.354013,-11.6901516,8107,Chisambi Village Borehole,40 metres away from Mangoe Trees,Borehole or tubewell,"TA Chindi, Mzimba, Malawi",9/3/2007
33.4809537,-11.6003059,16187,Robert Mbale Village Borehole,40 metres away from Mwitho River,Borehole or tubewell,"TA Chindi, Mzimba, Malawi",5/14/1997
33.4429766,-11.680887,28692,Bulala Agriculture Offices Borehole,40 metres from Bulala Agriculture Offices,Borehole or tubewell,"TA Chindi, Mzimba, Malawi",3/4/1993
33.3539299,-11.6686124,20707,Katolora Mfune Village Borehole,45 metres away from Lwanjazi river,Borehole or tubewell,"TA Chindi, Mzimba, Malawi",12/17/2018
33.478478,-11.5855053,16182,Mbati Mdhlopa Village Borehole,45 metres away from road to Chaboli,Borehole or tubewell,"TA Chindi, Mzimba, Malawi",6/1/2010
33.4604592,-11.3628312,16797,Chidumayo Ngulube borehole ,5 m from theach road to kapando,Borehole or tubewell,"TA Chindi, Mzimba, Malawi",6/19/2007
33.4362491,-11.7160813,14804,Nyambo Zimba Village Borehole,5 metres away from a Mango Tree,Borehole or tubewell,"TA Chindi, Mzimba, Malawi",6/9/1998
33.4521676,-11.3260538,16159,Chileka  Mwali Njolwa borehole ,5 metres from Kapando road ,Borehole or tubewell,"TA Chindi, Mzimba, Malawi",9/21/2007
33.5190926,-11.4033308,13193,Chimimba Chipeta borehole ,5 metres from Kapilingu road ,Borehole or tubewell,"TA Chindi, Mzimba, Malawi",11/27/1998
33.4170443,-11.4586796,18848,Euthini CDSS borehole,50 mitres from Euthini CDSS,Borehole or tubewell,"TA Chindi, Mzimba, Malawi",8/18/1989
33.4878132,-11.5031403,30619,Kamubanga school old bore hole,50 mitres from school,Borehole or tubewell,"TA Chindi, Mzimba, Malawi",7/15/1971
33.3879828,-11.5244501,5681,Katunguwiri primary school bore hole,50 mitres from school,Borehole or tubewell,"TA Chindi, Mzimba, Malawi",7/7/2007
33.460627,-11.5333716,6391,Chijere khondowe borehole ,50 mitres from the community,Borehole or tubewell,"TA Chindi, Mzimba, Malawi",10/15/2007
34.1649481,-10.7312544,21211,Lumphafya borehole,500 meters east of m1 road,Borehole or tubewell,"SC Mwalweni, Rumphi, Malawi",2/1/2017
33.5400829,-11.8514073,20160,Chaleza primary school ,500 my away from chaleza primary school sign post ,Borehole or tubewell,"TA M'Mbelwa, Mzimba, Malawi",5/10/2007
33.5951658,-11.8977818,34558,Mtambalika Moyo ,500m  from the road to Manyamula ,Borehole or tubewell,"Mzimba Boma, Mzimba, Malawi",
34.0118412,-10.8401598,15450,Kahonoko borehole ,50m away from the road to mhuju ,Borehole or tubewell,"SC Mwahenga, Rumphi, Malawi",2/9/2002
33.58917895,-10.91248622,32617,Chi tanga Primary School Borehole,50m from Chi tanga School,Borehole or tubewell,"TA Chikulamayembe, Rumphi, Malawi",1/1/2005
33.6288296,-10.9346313,30465,Wantulira borehole,55m away up the Rumphi Nyika Road,Borehole or tubewell,"TA Chikulamayembe, Rumphi, Malawi",8/20/2001
33.5968008,-10.9194556,30499,Chatu Nyika borehole,55m from Rumphi Nyika Road,Borehole or tubewell,"TA Chikulamayembe, Rumphi, Malawi",6/12/2007
34.159536,-10.585355,14920,Ndalemba mnawi borehole,5km West of chitimba primary school off M1 road ,Borehole or tubewell,"SC Mwalweni, Rumphi, Malawi",3/8/2018
33.544008,-11.4066067,29971,Kayidoke borehole 2,6 metres from  Kafukule road,Borehole or tubewell,"TA Chindi, Mzimba, Malawi",4/26/1993
33.5477352,-11.4782285,5194,Kawuluka chimalilo borehole,6 metres from mango tree ,Borehole or tubewell,"TA Chindi, Mzimba, Malawi",6/12/2007
33.5477882,-11.4936648,4879,Mtende primary school borehole ,6 metres from Melayina tree ,Borehole or tubewell,"TA Chindi, Mzimba, Malawi",9/12/2002
33.5621891,-11.5470701,35351,Azindembera Banda borehole ,6 metres from Mtende road ,Borehole or tubewell,"TA Chindi, Mzimba, Malawi",8/20/1998
33.5364273,-11.8943578,33470,Tcheza Shaba borehole ,600m from Chotha football ground to Ngoli school ,Borehole or tubewell,"TA M'Mbelwa, Mzimba, Malawi",11/25/2007
33.4837163,-11.5910777,7714,M'bama Chirwa Village Borehole,65 metres away from Mwitho River,Borehole or tubewell,"TA Chindi, Mzimba, Malawi",2/11/1998
33.4711463,-11.3309364,18790,Chibinthula Chawinga borehole ,680 fromantic Kapando trading,Borehole or tubewell,"TA Chindi, Mzimba, Malawi",6/18/1994
33.9271709,-11.3979006,25947,Moffat Kumwenda village borehole ,700m West of Msiki New Apostolic church on M1 road ,Borehole or tubewell,"TA Mtwalo, Mzimba, Malawi",12/9/2012
34.073083,-11.0054899,18472,Mphompha health centre borehole ,70m from mphompha health centre ,Borehole or tubewell,"SC Mwankhunikira, Rumphi, Malawi",7/15/2010
33.5636576,-11.4112813,17617,Gankha Chirwa borehole ,8 metres from  melayina tree,Borehole or tubewell,"TA Chindi, Mzimba, Malawi",5/30/2007
33.4461222,-11.4250185,26858,Mzambazi trading borehole ,8 metres from Chikuyu tree,Borehole or tubewell,"TA Chindi, Mzimba, Malawi",12/22/2017
33.5343524,-11.4525897,2980,Lambalamba Chinula borehole ,8 metres from Kachere tree ,Borehole or tubewell,"TA Chindi, Mzimba, Malawi",7/16/2007
33.4820372,-11.4335113,21189,Mseza LEA Primary school borehole ,8 metres from Kamphoni tree ,Borehole or tubewell,"TA Chindi, Mzimba, Malawi",9/28/2010
33.4866551,-11.4339017,22102,Thembawukali Mtika borehole ,8 metres from mango tree ,Borehole or tubewell,"TA Chindi, Mzimba, Malawi",6/13/2007
33.5309354,-11.4133504,19870,Chidulika Chirambo borehole ,8 metres from Mkwangwali road ,Borehole or tubewell,"TA Chindi, Mzimba, Malawi",6/3/2007
33.4474768,-11.4277313,26861,Chitowo Kumwenda borehole ,8 metres from msangusangu tree,Borehole or tubewell,"TA Chindi, Mzimba, Malawi",6/4/2018
33.721145,-11.0509386,4229,Munkhowo borehole ,800 meters before Betele full primary school ,Borehole or tubewell,"TA Chikulamayembe, Rumphi, Malawi",1/1/2001
33.4603205,-11.3289358,14928, Yakobe Ndezu  Nyirenda borehole,9 metres from Kapando road ,Borehole or tubewell,"TA Chindi, Mzimba, Malawi",5/27/2007
33.6240499,-12.1146281,23714,Mapanjira FP School water point,A few metres from Rukulu river,Borehole or tubewell,"TA Mzikubola, Mzimba, Malawi",6/21/2007
33.816531,-11.3229287,200,Chaleka FP School borehole ,A water point at Chaleka School ,Borehole or tubewell,"TA Mtwalo, Mzimba, Malawi",5/4/2014
33.8832074,-11.3265377,4649,Andrea Shonga village borehole ,A water point in Andrea Shonga village ,Borehole or tubewell,"TA Mtwalo, Mzimba, Malawi",2/16/2014
33.4087457,-12.1458302,13179,Batulumeyo Tembo village borehole ,A water point in Batulumeyo Tembo village ,Borehole or tubewell,"TA Mzukuzuku, Mzimba, Malawi",2/18/2013
33.9241211,-11.3094852,21286,Chabwandawuka Mbano village borehole,A water point in Chabwandawuka village,Borehole or tubewell,"TA Mtwalo, Mzimba, Malawi",11/27/2012
33.9389506,-11.3170149,1731,Chikhazika Village Borehole,A water point in Chikhazika Ngwira village,Borehole or tubewell,"TA Mtwalo, Mzimba, Malawi",12/12/2012
33.5430218,-12.113022,22292,Bola Thole village borehole ,A water point in GVH Bola Thole village ,Borehole or tubewell,"TA Mzikubola, Mzimba, Malawi",11/11/2011
33.9139193,-11.3372714,13220,Kachipumpha Mhone village borehole ,A water point in Kachipumpha Mhone done in 2007,Borehole or tubewell,"TA Mtwalo, Mzimba, Malawi",8/31/2007
33.3851835,-12.1693229,13174,Kamzingeni Banda borehole ,A water point in Kamzingeni village,Borehole or tubewell,"TA Mzukuzuku, Mzimba, Malawi",2/17/2013
33.42168903,-12.12236191,12564,Kasiyagoli Nkhoma Village Borehole,A water point in Kasiyagoli village ,Borehole or tubewell,"TA Mzukuzuku, Mzimba, Malawi",12/15/2011
33.5235765,-12.2019382,34843,Mandiza Mkhalipi ,A water point in Mandiza Mkhalipi village,Borehole or tubewell,"TA Mzikubola, Mzimba, Malawi",12/19/2012
33.8161421,-11.4422986,5185,Msolomoka Moyo Village Borehole,A water point in Msolomoka Village,Borehole or tubewell,"TA Mtwalo, Mzimba, Malawi",12/9/2014
33.564116,-12.0784378,13189,Pitara Phiri village borehole ,A water point in Pitara Phiri village ,Borehole or tubewell,"TA Mzikubola, Mzimba, Malawi",2/15/2013
33.3967579,-12.0986566,8036,Samuel Ndolo Village borehole,A water point in Samuel Ndolo Village ,Borehole or tubewell,"TA Mzukuzuku, Mzimba, Malawi",12/30/2010
33.50530795,-12.09017026,20958,William Muyaba Village Borehole,A water point in William Muyaba village ,Borehole or tubewell,"TA Mzikubola, Mzimba, Malawi",12/12/2012
33.50083023,-12.09748085,20954,Yvanena Lipunga Village Borehole,A water point in Yvanena,Borehole or tubewell,"TA Mzikubola, Mzimba, Malawi",2/14/2013
33.4371682,-12.1395311,20962,Zongonongo Nyirongo Village Borehole,A water point in Zongonongo Nyirongo Village,Borehole or tubewell,"TA Mzukuzuku, Mzimba, Malawi",12/8/2009
34.1076206,-10.8254117,19226,Waluchero borehole,About 100 meters from chief's compound,Borehole or tubewell,"SC Mwankhunikira, Rumphi, Malawi",2/7/2012
34.0123741,-10.9112925,30230,Senyera borehole,About 100 meters from the chief's compound,Borehole or tubewell,"SC Mwankhunikira, Rumphi, Malawi",6/4/2008
33.4317677,-12.2051514,8182,Malepa Manda borehole ,About 100 metres from kamphoni CCAP church,Borehole or tubewell,"TA Mzukuzuku, Mzimba, Malawi",10/12/1989
33.4929779,-12.2414549,30758,Maliba soko village water point,About 100 metres north of maliba village residence ,Borehole or tubewell,"TA Mzukuzuku, Mzimba, Malawi",10/23/2010
33.4854281,-12.2587787,31851,Mphiripiri water point,About 10metres from jenda-Edingeni road,Borehole or tubewell,"TA Mzukuzuku, Mzimba, Malawi",3/14/2015
33.9949569,-10.9080175,7272,Mundango borehole,About 200 meters from the chief's compound,Borehole or tubewell,"SC Mwankhunikira, Rumphi, Malawi",1/1/2013
34.0046466,-10.9068612,31461,Thandala borehole,About 200 meters from the chief's compound,Borehole or tubewell,"SC Mwankhunikira, Rumphi, Malawi",4/22/2019
34.0318151,-10.9235842,33307,Sopela borehole,About 200 meters from the chief's compound ,Borehole or tubewell,"SC Mwankhunikira, Rumphi, Malawi",6/26/2001
33.5060743,-12.2186133,30873,Chitembeya Nkhata water point ,About 200metres from chitembeya residence ,Borehole or tubewell,"TA Mzikubola, Mzimba, Malawi",7/10/1998
33.5560912,-11.9167585,31881,Peter Ndawandawa,About 250m from Peter Ndawandawa turn off to Prison road,Borehole or tubewell,"TA M'Mbelwa, Mzimba, Malawi",1/1/1993
34.0300574,-10.912942,181,Vitanda borehole,About 300 meters from the chief's compound,Borehole or tubewell,"SC Mwankhunikira, Rumphi, Malawi",1/6/2002
33.9865985,-10.9404588,2454,Fungaphembe borehole,About 300 meters from the main road,Borehole or tubewell,"SC Mwankhunikira, Rumphi, Malawi",1/1/1997
33.5616467,-11.9140724,6022,Peter Ndawandawa 1,About 350m from Peter Ndawandawa grain bank to Prison road  you find a carvat turn to your left,Borehole or tubewell,"TA M'Mbelwa, Mzimba, Malawi",1/1/1998
33.921836,-10.9902052,8050,Mkoweka Borehole ,About 400m NE from the main roard to Ng'onga Trading Centre,Borehole or tubewell,"STA Chisovya, Rumphi, Malawi",2/26/2002
33.4293064,-12.1593445,6977,Kaphikanjoka village water point2,About 4km from Dimi school going West ,Borehole or tubewell,"TA Mzukuzuku, Mzimba, Malawi",10/14/1992
33.4294216,-12.1549881,30205,Kaphikanjoka village water point ,About 4km West of Dimi FP school ,Borehole or tubewell,"TA Mzukuzuku, Mzimba, Malawi",7/4/2010
34.0264016,-10.9044411,31341,Mvina borehole,About 50 meters from chief's compound,Borehole or tubewell,"SC Mwankhunikira, Rumphi, Malawi",7/12/2018
34.03064578,-10.90954326,1855,Mzokoto Monitoring well ,About 50m south of mzokoto Primary school ,Borehole or tubewell,"SC Mwankhunikira, Rumphi, Malawi",1/1/2014
34.0164108,-10.9085833,4542,Kalirawaleke borehole,About 60 meters from the group village headman's compound,Borehole or tubewell,"SC Mwankhunikira, Rumphi, Malawi",4/3/2001
33.9232516,-10.9951383,31006,Kadumuliro water point,About 600m away from lukali trading centre,Borehole or tubewell,"STA Chisovya, Rumphi, Malawi",4/13/2019
33.4202049,-12.153436,30893,Gangala village water point2,About 6km West of Dimi FP school ,Borehole or tubewell,"TA Mzukuzuku, Mzimba, Malawi",3/10/2010
33.9888903,-10.9459934,6648,Madunga borehole,About 700 meters (south east) from the group village headman's compound,Borehole or tubewell,"SC Mwankhunikira, Rumphi, Malawi",12/1/2006
33.906806,-11.416314,28507,Mponda village borehole ,About 80m West of Ekwaiweni Trading Centre ,Borehole or tubewell,"TA Mtwalo, Mzimba, Malawi",9/3/2006
33.3553566,-11.4363736,21665,Kwelani Kumwenda borehole,After Chankharamu bridge when coming from Kapija school  turn off,Borehole or tubewell,"TA Chindi, Mzimba, Malawi",10/5/2019
33.3059783,-11.5320605,4577,Zhawongo borehole,After Chasengo Estate turn off along Mbalachanda - Madede road,Borehole or tubewell,"TA Chindi, Mzimba, Malawi",9/7/2007
33.3383493,-11.4658267,5140,Wamuzale borehole,After crossing Kamulaza stream,Borehole or tubewell,"TA Chindi, Mzimba, Malawi",7/15/2005
33.3022414,-12.0505254,35268,Equochen ,After Edingeni school ground ,Borehole or tubewell,"TA M'Mbelwa, Mzimba, Malawi",1/2/1998
33.9133387,-11.031293,31715,Chiyayike water point ,After njakwa bridge to livingstonia road ,Borehole or tubewell,"STA Chisovya, Rumphi, Malawi",3/23/2002
33.6115607,-11.7124385,17745,Mayuwi  primary  school ,Along   Eswazini road,Borehole or tubewell,"SC Kampingo Sibande, Mzimba, Malawi",6/1/2018
33.8612127,-9.9455896,30658,Lasha borehole no.2,Along  Chitipa road,Borehole or tubewell,"TA Kyungu, Karonga, Malawi",8/30/1995
33.4118513,-11.3547407,26473,Vyapatamo borehole,Along  Escom 11kv power lines connecting Mbalachanda,Borehole or tubewell,"TA Chindi, Mzimba, Malawi",3/12/2001
33.6141477,-11.7137886,5899,Mpinganjira  Banda,Along  Eswazina -Ngomiawo  road,Borehole or tubewell,"SC Kampingo Sibande, Mzimba, Malawi",1/19/2001
33.5909609,-11.7149565,446,Baphani  Kamanga  borehole ,Along  Eswazini road,Borehole or tubewell,"TA Chindi, Mzimba, Malawi",9/9/2016
33.5851962,-11.7169013,22007,Kam'bumbe borehole ,Along  Eswazini-Ngomiawo road,Borehole or tubewell,"TA Chindi, Mzimba, Malawi",9/24/2016
33.6555353,-11.8391548,15204,Chaliwa Nkhata  Borehole ,Along  Kazimasika  river ,Borehole or tubewell,"SC Kampingo Sibande, Mzimba, Malawi",7/10/2015
33.3511493,-11.6312982,19754,Molotoni Mtonga borehole,Along  Lukwelukwe - Vithando School,Borehole or tubewell,"TA Chindi, Mzimba, Malawi",10/25/1998
34.1911115,-10.6825869,32575,Mtomboloka bolehole,Along  M1 road ,Borehole or tubewell,"SC Mwalweni, Rumphi, Malawi",1/1/1994
33.5841389,-11.6800428,29945,Chibetete  Gondwe borehole ,Along  Malangazi  -Mzalangwe road,Borehole or tubewell,"TA Chindi, Mzimba, Malawi",5/24/2008
33.327577,-11.6878483,2817,Levi Mphande borehole,Along  Wanitaya - Kaonekera road,Borehole or tubewell,"TA Chindi, Mzimba, Malawi",9/23/2019
33.5680974,-11.7634666,2486,Zondwayo Nkosi 1 borehole ,Along  zgangayi road ,Borehole or tubewell,"TA Chindi, Mzimba, Malawi",10/12/1998
33.8203513,-11.4371291,35155,Makalanje Tchuwa borehole ,Along Admarck road ,Borehole or tubewell,"TA Mtwalo, Mzimba, Malawi",11/6/2001
33.3324135,-11.42589,2809,Layere Banda borehole,Along Agripa to Kapija road,Borehole or tubewell,"TA Chindi, Mzimba, Malawi",8/28/2007
33.8039745,-11.3855237,28103,Paulos Zgambo borehole ,Along bwabwa -kasitu  road ,Borehole or tubewell,"TA Mtwalo, Mzimba, Malawi",11/13/1997
33.8105149,-11.3883289,2227,Jamu chiziwa borehole ,Along bwabwa -kasitu road ,Borehole or tubewell,"TA Mtwalo, Mzimba, Malawi",6/4/2011
33.8038708,-11.3935553,27307,Bwabwa primary school borehole ,Along bwabwa -kaweche road ,Borehole or tubewell,"TA Mtwalo, Mzimba, Malawi",12/12/1994
33.804676,-11.39213,27346,Bwabwa school borehole 2,Along bwabwa -kaweche road ,Borehole or tubewell,"TA Mtwalo, Mzimba, Malawi",12/10/1997
33.7947483,-11.3936663,28158,Mkhuzo borehole ,Along bwabwa -kaweche road ,Borehole or tubewell,"TA Mtwalo, Mzimba, Malawi",6/30/1997
33.7884958,-11.4002349,22408,Mkwapasi mbizi borehole ,Along bwabwa -kaweche road ,Borehole or tubewell,"TA Mtwalo, Mzimba, Malawi",2/6/1998
33.7829714,-11.4158064,22347,Kampupu borehole ,Along bwabwa road ,Borehole or tubewell,"TA Mtwalo, Mzimba, Malawi",3/5/1997
33.7883572,-11.4292638,22775,William chisi borehole 2,Along bwabwa road ,Borehole or tubewell,"TA Mtwalo, Mzimba, Malawi",3/13/1997
33.6055134,-9.8832273,19959,Namchenyenthero 1 borehole ,Along CCAP church to Kalowera scheme road,Borehole or tubewell,"TA Kyungu, Karonga, Malawi",12/5/2006
33.4191426,-11.4488385,26185,Kapilil primary school borehole,Along chamunya stream,Borehole or tubewell,"TA Chindi, Mzimba, Malawi",9/1/1984
33.3173092,-11.5134561,31355,Chitengo Nyirenda Borehole,Along Chang'anga to Madede road,Borehole or tubewell,"TA Chindi, Mzimba, Malawi",4/6/2014
34.0392342,-11.3426039,23956,Chanjati borehole,Along chanjati stream,Borehole or tubewell,"TA M'bwana, Nkhata Bay, Malawi",10/25/2000
33.4415739,-11.4694616,27282,Gwala Banda borehole,Along chankhalamu stream,Borehole or tubewell,"TA Chindi, Mzimba, Malawi",3/9/2011
33.9565143,-10.0517568,24964,Bambo borehole,Along chasato valley,Borehole or tubewell,"TA Kyungu, Karonga, Malawi",8/29/1990
33.2857743,-11.5473445,5310,Kamomo borehole,Along Chauti stream,Borehole or tubewell,"TA Chindi, Mzimba, Malawi",8/13/2007
33.418568,-11.1977702,23396,Wato  kumwenda borehole,Along chavindikila stream,Borehole or tubewell,"TA Mpherembe, Mzimba, Malawi",2/22/2000
33.8268166,-11.4536192,20003,Mthusani Ngulube borehole ,Along chifwefwe road ,Borehole or tubewell,"TA Mtwalo, Mzimba, Malawi",11/9/2001
33.7639374,-11.0000464,428,Chigumba water point,Along chikwawa bolero road (jandang'ombe,Borehole or tubewell,"TA Chikulamayembe, Rumphi, Malawi",7/1/1997
33.7682447,-11.0067383,30866,Jeremani water point,Along chikwawa to borero road,Borehole or tubewell,"TA Chikulamayembe, Rumphi, Malawi",11/4/2016
33.7453609,-11.0218135,173,Jalira - mtawanda water point,Along chikwawa to kazuni,Borehole or tubewell,"TA Chikulamayembe, Rumphi, Malawi",3/16/2008
33.7630622,-11.0193534,20332,Zonde water point,Along chikwawa to kazuni road,Borehole or tubewell,"TA Chikulamayembe, Rumphi, Malawi",1/1/2004
33.7611937,-11.0214526,30809,Zonde waterpoint 2,Along chikwawa to kazuni road,Borehole or tubewell,"TA Chikulamayembe, Rumphi, Malawi",1/1/1999
33.7971608,-11.4720107,22149,Jaman mhone borehole ,Along chimbongondo - Emsizin road ,Borehole or tubewell,"TA Mtwalo, Mzimba, Malawi",11/20/2001
33.5815815,-11.7316194,4157,Yobe Moyo borehole ,Along chimwembe -zondwayo Nkosi  road,Borehole or tubewell,"TA Chindi, Mzimba, Malawi",9/27/2007
33.9416831,-10.0271584,23202,Chawanangwa borehole,Along chisalankhanga stream,Borehole or tubewell,"TA Kyungu, Karonga, Malawi",2/2/2004
34.152668,-10.5708908,7574,Chihanga mzikiti borehole,Along chitimba river at chihanga school,Borehole or tubewell,"SC Mwalweni, Rumphi, Malawi",3/1/2017
34.1511813,-10.5716898,35280,Chihanga primary school borehole ,Along chitimba river at chihanga school,Borehole or tubewell,"SC Mwalweni, Rumphi, Malawi",4/1/2004
33.8327683,-9.9528259,30232,Mbande FP School's borehole,Along Chitipa road,Borehole or tubewell,"TA Kyungu, Karonga, Malawi",9/20/1977
33.8381941,-9.9492227,20011,Mwakilama borehole,Along Chitipa road,Borehole or tubewell,"TA Kyungu, Karonga, Malawi",8/10/1990
33.8460147,-9.9426752,25777,Mwandosha 2 Village,Along Chitipa road,Borehole or tubewell,"TA Kyungu, Karonga, Malawi",3/5/2015
33.9126611,-9.9371792,29798,Mwanyongo borehole,Along chitipa road,Borehole or tubewell,"Karonga Town, Karonga, Malawi",5/31/2018
33.673792,-9.9205008,6058,Sichinga borehole,Along Chitipa road,Borehole or tubewell,"TA Kyungu, Karonga, Malawi",11/12/2008
34.1797581,-10.678655,5951,Mkulano shallow well,Along chombe forest ,Borehole or tubewell,"SC Mwalweni, Rumphi, Malawi",4/1/2016
33.2936663,-11.5379839,26746,Echilumbeni School Borehole,Along Echilumbeni school  to Phemba road near Mr Khaki's house,Borehole or tubewell,"TA Chindi, Mzimba, Malawi",8/22/2003
33.8455791,-11.4181454,6156,Ehlekwen school borehole ,Along Ekwenden road ,Borehole or tubewell,"TA Mtwalo, Mzimba, Malawi",6/6/2000
33.5035188,-12.1178928,3717,Zawinduka 1 borehole ,Along Embangweni - Thoza road ,Borehole or tubewell,"TA Mzikubola, Mzimba, Malawi",12/11/2009
33.5124506,-12.104233,21962,Zawinduka Hara borehole 2,Along Embangweni - Thoza road ,Borehole or tubewell,"TA Mzikubola, Mzimba, Malawi",9/21/1999
33.8246018,-11.4435594,21989,Emsizin chipatala borehole ,Along Emsizin -Ekwenden road ,Borehole or tubewell,"TA Mtwalo, Mzimba, Malawi",4/19/1993
33.8298777,-11.4381257,795,Samson borehole ,Along Emsizin -Ekwenden road ,Borehole or tubewell,"TA Mtwalo, Mzimba, Malawi",12/9/2002
33.8255725,-11.3707859,28540,Emuviyen school borehole ,Along Emuviyen -Ekwenden road ,Borehole or tubewell,"TA Mtwalo, Mzimba, Malawi",6/30/1993
33.8188887,-11.3790854,28470,Gideon chipewa borehole ,Along Emuviyen -Ekwenden road ,Borehole or tubewell,"TA Mtwalo, Mzimba, Malawi",8/22/1998
33.8279433,-11.368725,34285,Kanthowa Mhango borehole ,Along Emuviyen -Ekwenden road ,Borehole or tubewell,"TA Mtwalo, Mzimba, Malawi",6/10/2004
33.8227904,-11.3739441,16379,Elias Ngulube borehole ,Along Emuviyen -kaweche road ,Borehole or tubewell,"TA Mtwalo, Mzimba, Malawi",1/29/1997
33.798398,-11.3771219,7415,Mukochiwa Hara borehole ,Along Emuviyen -mtwalo road ,Borehole or tubewell,"TA Mtwalo, Mzimba, Malawi",6/21/2008
33.8864787,-10.0696386,27032,Cheghama Ikumbo Borehole 2,Along Ikumbo Valley ,Borehole or tubewell,"TA Kyungu, Karonga, Malawi",1/1/1999
34.1671405,-10.7329568,4772,Masasa borehole,Along jalawe bunga road,Borehole or tubewell,"SC Mwalweni, Rumphi, Malawi",3/4/2004
34.1700295,-10.7360416,186,Mwaziko borehole ,Along jalawe bunga road ,Borehole or tubewell,"STA Njikula, Rumphi, Malawi",9/6/2018
33.7385404,-11.0111515,35224,Kabonda water point,Along jalira to bolero road,Borehole or tubewell,"TA Chikulamayembe, Rumphi, Malawi",10/15/2007
33.4200752,-11.4612412,23301,Mvwalamani  nkhoma pump,Along jombo stream,Borehole or tubewell,"TA Chindi, Mzimba, Malawi",8/19/2006
33.8029152,-11.4427728,5136,Gonera Hara borehole ,Along kabila road ,Borehole or tubewell,"TA Mtwalo, Mzimba, Malawi",5/30/2000
33.8273715,-11.4283477,19283,Samuel Nkosi borehole ,Along kabila road ,Borehole or tubewell,"TA Mtwalo, Mzimba, Malawi",10/23/2004
33.7849708,-11.4460779,5232,Dunduzule borehole ,Along kabwanda road ,Borehole or tubewell,"TA Mtwalo, Mzimba, Malawi",3/16/1997
33.7984324,-11.4436239,19369,William chisi borehole ,Along kabwanda road ,Borehole or tubewell,"TA Mtwalo, Mzimba, Malawi",10/29/1997
33.8693208,-10.0491102,27717,Cheghama kafulufulu borehole,Along kafulufulu river,Borehole or tubewell,"TA Kyungu, Karonga, Malawi",9/2/1999
33.3243078,-11.6374196,19845,Kesale Nyangulu borehole,Along Kakombwe - Wanitaya road on the left,Borehole or tubewell,"TA Chindi, Mzimba, Malawi",9/10/2007
33.618888,-11.0380478,29706,Mjinyuka water point ,Along kamphenda road ,Borehole or tubewell,"TA Chikulamayembe, Rumphi, Malawi",10/8/1984
33.4060461,-11.3654076,26476,Bundi Chisokwe borehole,Along Kandani - Vyapatamo road,Borehole or tubewell,"TA Chindi, Mzimba, Malawi",10/18/2001
33.3371269,-11.790484,3131,Qolocha Tembo borehole,Along Kaonekera - Kamteteka road,Borehole or tubewell,"TA M'Mbelwa, Mzimba, Malawi",2/12/1993
33.6593257,-11.4525391,14465,Peter Jere Borehole 1,Along Kapangamawe -Kafukale Road ,Borehole or tubewell,"TA Mtwalo, Mzimba, Malawi",4/25/1994
33.6622541,-11.4507956,22743,Peter Jere Borehole 2,Along Kapangamawe -Kafukale Road ,Borehole or tubewell,"TA Mtwalo, Mzimba, Malawi",10/12/1997
33.703337,-10.1378465,14736,Kopakopa u/5 Clinic borehole ,Along kapilinkhonde /mibanga road ,Borehole or tubewell,"STA Nthengatenga, Chitipa, Malawi",11/11/2008
33.6931567,-10.1809344,23815,Mahowe LEA School borehole number 1,Along kapilinkhonde /mibanga road ,Borehole or tubewell,"STA Nthengatenga, Chitipa, Malawi",5/8/2001
33.3590101,-12.21799,4737,Chibamu borehole,Along Kapopo Mzoma road,Borehole or tubewell,"TA M'Mbelwa, Mzimba, Malawi",9/8/2007
34.0546314,-10.1864794,15510,Kazimoto Sichali boreehole,Along Karonga to  Mzuzu M1 road,Borehole or tubewell,"TA Kyungu, Karonga, Malawi",6/14/1977
33.828428,-10.0215147,24948,Mubuyu borehole,Along Kasanu road,Borehole or tubewell,"TA Kyungu, Karonga, Malawi",7/19/2014
33.3265336,-12.2018319,21342,Nkhata borehole,Along Kasichi Kalikumbi road,Borehole or tubewell,"TA M'Mbelwa, Mzimba, Malawi",10/2/1997
33.8325018,-9.9876617,30741,Menion borehole,Along kasikizi turn off to kaskizi school road,Borehole or tubewell,"TA Kyungu, Karonga, Malawi",4/2/2002
33.7612518,-11.0759429,29304,Kategha estate  borehole ,Along kategha stream,Borehole or tubewell,"TA Mtwalo, Mzimba, Malawi",8/14/1996
33.4086263,-11.2065318,28118,Chasamba primary school borehole,Along kaviyombo stream,Borehole or tubewell,"TA Mpherembe, Mzimba, Malawi",5/22/2007
33.7454223,-10.943136,14712,Mghogho waterpoint,Along kawaza to jumbi road,Borehole or tubewell,"TA Chikulamayembe, Rumphi, Malawi",8/1/2004
33.880783,-10.108899,27091,Kazguli zulu borehole 1,Along kazguli valley,Borehole or tubewell,"TA Kyungu, Karonga, Malawi",6/15/2001
33.6900362,-11.0977848,29711,Chilumbalwanja bowe 1 water point ,Along kazuni road ,Borehole or tubewell,"TA Mpherembe, Mzimba, Malawi",1/1/1960
33.9312731,-10.0339884,35565,Melele khaba borehole,Along khaba valley,Borehole or tubewell,"TA Kyungu, Karonga, Malawi",11/14/2018
33.8160688,-11.4258388,19277,Chinthuchawaka borehole ,Along Luhale road ,Borehole or tubewell,"TA Mtwalo, Mzimba, Malawi",12/12/2002
33.3810581,-12.0948773,19351,Chimimba Lukhere ,Along Lukulu river,Borehole or tubewell,"TA M'Mbelwa, Mzimba, Malawi",7/21/2004
33.724457,-10.9182294,3137,Mwajonyanga water point,Along lundu secondary school to mkama road,Borehole or tubewell,"TA Chikulamayembe, Rumphi, Malawi",3/6/1999
33.6418618,-11.8527268,26800,Mzimba DAPP Teacher's Training College Borehole ,Along Lwanyina stream ,Borehole or tubewell,"SC Kampingo Sibande, Mzimba, Malawi",8/21/2012
33.9125716,-10.0245299,23162,Mwasota borehole 2,Along lwasho river,Borehole or tubewell,"TA Kyungu, Karonga, Malawi",3/1/1990
33.9306508,-10.0113717,29678,Mwenilondo vet station borehole,Along lwasho river,Borehole or tubewell,"TA Kyungu, Karonga, Malawi",7/3/2003
34.1700337,-10.5879109,11399,Mnthopa Or Kalipochi,Along m1  road,Borehole or tubewell,"SC Mwalweni, Rumphi, Malawi",1/1/2004
33.8782751,-10.0341298,19070,Ngindekimo borehole 3,Along m1- katiri earth road,Borehole or tubewell,"TA Kyungu, Karonga, Malawi",1/2/2004
33.9605704,-10.0423795,16196, Walughali  mseu borehole,Along M1 road,Borehole or tubewell,"TA Kyungu, Karonga, Malawi",1/1/1996
34.1633272,-10.7317324,4111,Jalawe primary school borehore,Along m1 road,Borehole or tubewell,"SC Mwalweni, Rumphi, Malawi",8/4/2004
34.1881851,-10.6637873,18287,Joha borehole,Along M1 road,Borehole or tubewell,"SC Mwalweni, Rumphi, Malawi",1/1/2006
33.9646957,-10.0544913,2547,Kasiri Lughali Borehole ,Along M1 Road,Borehole or tubewell,"TA Kyungu, Karonga, Malawi",1/1/1969
33.9703741,-10.0665224,4847,Lupembe agriculture waterpoint,Along M1 road,Borehole or tubewell,"TA Kyungu, Karonga, Malawi",1/2/1970
34.1923746,-10.6800449,28875,Majighavunda borehole,Along m1 road,Borehole or tubewell,"SC Mwalweni, Rumphi, Malawi",1/1/2004
34.1505567,-10.7377167,7915,Masuku borehole,Along M1 road,Borehole or tubewell,"STA Njikula, Rumphi, Malawi",2/4/2015
34.1911862,-10.6804744,30219,Nkhama borehole,Along M1 road,Borehole or tubewell,"SC Mwalweni, Rumphi, Malawi",1/1/2007
34.1918223,-10.6655457,35007,Zimwanda borehole ,Along M1 road,Borehole or tubewell,"SC Mwalweni, Rumphi, Malawi",1/1/2008
33.9823218,-10.0844029,17790,Chinsowolo Abandoned Borehole ,Along M1 Road ,Borehole or tubewell,"TA Kyungu, Karonga, Malawi",1/1/1996
33.9823835,-10.0843373,17724,Chinsowolo Borehole ,Along M1 Road ,Borehole or tubewell,"TA Kyungu, Karonga, Malawi",3/27/2016
33.9680392,-10.0636529,16355,Kayuni borehole 3,Along M1 road ,Borehole or tubewell,"TA Kyungu, Karonga, Malawi",7/7/2012
34.1695264,-10.5936106,14817,Chitimba police borehole,Along M1 road at livingstonia junction ,Borehole or tubewell,"SC Mwalweni, Rumphi, Malawi",1/1/2008
34.1694881,-10.5954385,32245,Mkondowe-safari borehole,Along M1 road at safari camp,Borehole or tubewell,"SC Mwalweni, Rumphi, Malawi",1/1/2004
34.167411,-10.5972896,14786,Chitimba cdss borehole,Along M1 road next to chitimba post office,Borehole or tubewell,"SC Mwalweni, Rumphi, Malawi",3/1/2017
34.1915269,-10.6217293,34901,Champhonga shallow well,Along M1 road next to mbuta lodge,Borehole or tubewell,"SC Mwalweni, Rumphi, Malawi",3/3/2016
34.1710919,-10.5998434,30905,Hoyi 1 borehole ,Along m1 roas,Borehole or tubewell,"SC Mwalweni, Rumphi, Malawi",6/14/2018
33.8146264,-9.9644699,5199,Mpata borehole,Along M26 road,Borehole or tubewell,"TA Kyungu, Karonga, Malawi",6/1/2005
33.8054598,-9.9571746,30709,Mwamunyila waterpoint,Along M26 road near mango and baobab trees,Borehole or tubewell,"TA Kyungu, Karonga, Malawi",11/2/2008
33.3127279,-11.5918949,30075,Malisawa Mvuna borehole,Along Madede - Kakombwe road,Borehole or tubewell,"TA Chindi, Mzimba, Malawi",4/4/2014
33.2986215,-11.5530543,22696,Myegha Chinji borehole,Along Madede - Kakombwe road,Borehole or tubewell,"TA Chindi, Mzimba, Malawi",6/22/2002
33.3322352,-11.7202567,16957,Mandiza Mkhalipi borehole,Along Madede - Kamteteka road,Borehole or tubewell,"TA Chindi, Mzimba, Malawi",10/25/2018
33.3314654,-11.7783085,7859,Qolocha Tembo borehole,Along Madede - Kamteteka road on the left,Borehole or tubewell,"TA M'Mbelwa, Mzimba, Malawi",9/23/2007
33.362949,-11.5794836,26389,Kanyemba Moyo borehole,Along Madede - Ndembera road,Borehole or tubewell,"TA Chindi, Mzimba, Malawi",8/16/2008
33.3296642,-11.5680724,26381,Msazulwa Mng'andu borehole,Along Madede - Ndembera road,Borehole or tubewell,"TA Chindi, Mzimba, Malawi",9/30/1998
33.29259,-11.5393578,24084,Madede borehole,Along Madede - Phemba road,Borehole or tubewell,"TA Chindi, Mzimba, Malawi",1/28/2013
33.3213221,-11.6119089,27000,Kakombwe School borehole,Along Madede - Wanitaya road opposite Roman catholic church,Borehole or tubewell,"TA Chindi, Mzimba, Malawi",3/23/1993
33.3208793,-11.5103208,31356,Kapera Phangura Borehole,Along Madede road after Kaimame pvt school,Borehole or tubewell,"TA Chindi, Mzimba, Malawi",4/21/2009
33.3344584,-11.5688151,15876,Zindonde Kumwenda borehole,Along Madede to Ndembera road,Borehole or tubewell,"TA Chindi, Mzimba, Malawi",8/11/2007
33.5897803,-9.9036526,31509,Madibira borehole,Along Madibira river,Borehole or tubewell,"TA Kyungu, Karonga, Malawi",8/8/2007
33.5970785,-11.6918554,35406,Chagaga Banda  borehole ,Along Malangazi  -Mphofwa  road,Borehole or tubewell,"TA Chindi, Mzimba, Malawi",2/10/2007
33.5893428,-11.6988562,21958,Malangazi CDSS borehole 1,Along Malangazi road,Borehole or tubewell,"TA Chindi, Mzimba, Malawi",8/8/2004
33.7636691,-11.4388976,14815,Gezamunjowe borehole ,Along malende -Elangen road ,Borehole or tubewell,"TA Mtwalo, Mzimba, Malawi",4/26/1997
33.7684701,-11.4388867,23131,Saulos makhala borehole ,Along malende road ,Borehole or tubewell,"TA Mtwalo, Mzimba, Malawi",3/15/1997
33.5256258,-11.3083834,26847,Kabwafu health centre borehole ,Along Malidade road ,Borehole or tubewell,"TA Mpherembe, Mzimba, Malawi",8/31/2000
33.8502212,-9.9209143,31475,Sefu Malema waterpoint,Along malimbalimba kasowa road,Borehole or tubewell,"TA Kyungu, Karonga, Malawi",1/1/1973
33.4025645,-11.3436597,3399,Kasenga School borehole,Along Manolo - Madede road,Borehole or tubewell,"TA Chindi, Mzimba, Malawi",7/3/1994
33.3945287,-11.353972,31199,Chikhumbi borehole,Along Manoro road after Kasenga bridge to the right hand side,Borehole or tubewell,"TA Chindi, Mzimba, Malawi",10/26/2018
33.7897384,-11.4827394,29545,Sumayiri borehole ,Along manyalen road ,Borehole or tubewell,"TA Mtwalo, Mzimba, Malawi",11/21/2001
33.7128443,-11.8494658,30677,Kachelenga Borehole ,Along Masaf  road from Tchili to Makali ,Borehole or tubewell,"SC Kampingo Sibande, Mzimba, Malawi",8/11/2007
33.9473422,-10.0286321,23199,Mikambalala borehole,Along masaf road from khaba to ma1 road,Borehole or tubewell,"TA Kyungu, Karonga, Malawi",3/2/2004
33.9951903,-10.0818637,17801,Mwenelupembe 3 borehole,Along masaf road from lupembe health centre to chiwondo promary school,Borehole or tubewell,"TA Kyungu, Karonga, Malawi",1/1/1991
33.9355875,-9.9997568,4947,Potifer borehore,Along masaf road from mwenilondo to the lake,Borehole or tubewell,"TA Kyungu, Karonga, Malawi",1/1/1997
33.9418306,-10.0170329,34124,Melele borehole 4,Along masaf road from st marys to M1,Borehole or tubewell,"TA Kyungu, Karonga, Malawi",5/1/1990
33.9891872,-10.0804125,18422,Mwenelupembe 2 borehole,Along masaf road from the bridge to the lake,Borehole or tubewell,"TA Kyungu, Karonga, Malawi",1/1/1991
33.9898644,-10.0846491,5123,Mwenelupembe 1 borehole,Along masaf road to the lake,Borehole or tubewell,"TA Kyungu, Karonga, Malawi",5/20/2013
33.6999529,-11.79759,26644,Mawala Borehole ,Along Mathandani river ,Borehole or tubewell,"SC Kampingo Sibande, Mzimba, Malawi",8/12/2007
33.7527699,-11.4614722,4730,Mathen school borehole ,Along mathen -Elangen road ,Borehole or tubewell,"TA Mtwalo, Mzimba, Malawi",6/30/2004
33.7572717,-11.4648107,22803,Kanyoli chipeta borehole ,Along mathen road ,Borehole or tubewell,"TA Mtwalo, Mzimba, Malawi",10/31/1997
33.764213,-11.4574123,22767,Sinya mhone borehole ,Along mathen road ,Borehole or tubewell,"TA Mtwalo, Mzimba, Malawi",4/8/1997
33.8705555,-11.4138663,35677,Emazinyen school borehole ,Along mazinyen -Ekwenden road ,Borehole or tubewell,"TA Mtwalo, Mzimba, Malawi",12/7/1999
33.9499214,-10.0446559,6689,Mazungumika borehole,Along mazungumika valley,Borehole or tubewell,"TA Kyungu, Karonga, Malawi",1/2/1990
33.3704377,-11.3615216,5248,Mbalachanda Guest House borehole,Along Mbalachanda rural growth centre ring road (Near Mr. Moyo's house),Borehole or tubewell,"TA Chindi, Mzimba, Malawi",7/7/1994
33.3596557,-11.4211769,30710,Katongomala borehole,Along Mbalachanda to Madede road near Kaluso carpentry shop,Borehole or tubewell,"TA Chindi, Mzimba, Malawi",7/4/1994
33.658503,-9.9721358,33255,Mbutuka borehole,Along Mbutuka to Chiteka road,Borehole or tubewell,"TA Kyungu, Karonga, Malawi",8/21/2007
33.7862223,-11.1030655,3546,Chindangwa Chirwa waterpoint ,Along mlalaji stream,Borehole or tubewell,"TA Mtwalo, Mzimba, Malawi",8/13/1980
33.7872716,-11.4915783,22307,Kanyunya borehole ,Along mlimo road ,Borehole or tubewell,"TA Mtwalo, Mzimba, Malawi",5/3/2006
33.2975605,-12.0327959,19045,Chiyenga Gondwe borehole ,Along mnthambi stream,Borehole or tubewell,"TA M'Mbelwa, Mzimba, Malawi",11/23/2007
33.5014256,-11.8888429,6627,Israel  Mazunda ,Along mphongo Hill to Mvakule trading centre ,Borehole or tubewell,"TA M'Mbelwa, Mzimba, Malawi",1/1/1997
33.3527857,-12.2534049,24150,Chaganda Nyirenda borehole,Along Mtuzuzu river South West of Kamnchenja school,Borehole or tubewell,"TA M'Mbelwa, Mzimba, Malawi",9/8/2004
33.3442363,-12.2465126,22967,Chimboto 2 borehole ,Along Mtuzuzu river Zakeyu,Borehole or tubewell,"TA M'Mbelwa, Mzimba, Malawi",10/8/2009
33.9279347,-10.007314,31331,Mwangolera principal borehole 6,Along mwabulambo valley,Borehole or tubewell,"TA Kyungu, Karonga, Malawi",8/16/2001
33.8284179,-9.9757951,5527,Mogha borehole,Along Mwembe to Ngemera road,Borehole or tubewell,"TA Kyungu, Karonga, Malawi",11/5/2015
33.9399396,-9.9879719,17449,Potpher Mwangolera borehole 5,Along mwenilondo to lake earth road,Borehole or tubewell,"TA Kyungu, Karonga, Malawi",1/1/2002
33.9403451,-9.99927,31500,Vokolani lwasho borehoke 06,Along mwenilondo to lake earth road,Borehole or tubewell,"TA Kyungu, Karonga, Malawi",1/1/1988
33.8218082,-10.0470932,29668,Mbale's borehole,Along Mwesha river,Borehole or tubewell,"TA Kyungu, Karonga, Malawi",11/5/2015
33.8315221,-9.9628829,30740,Ntan borehole,Along Mwesha road,Borehole or tubewell,"TA Kyungu, Karonga, Malawi",10/20/1977
33.838234,-9.9740733,33662,Mbulu borehole,Along Mwesha to Mukungwi school road,Borehole or tubewell,"TA Kyungu, Karonga, Malawi",10/16/2018
33.3340682,-12.1662076,24643,Kamangadazi Shawa borehole ,Along Mzoma -Kapopo road,Borehole or tubewell,"TA M'Mbelwa, Mzimba, Malawi",10/10/2007
33.3433257,-12.194749,4320,Mbenje borehole,Along Mzoma Kapopo road near Mtuzuzu river,Borehole or tubewell,"TA M'Mbelwa, Mzimba, Malawi",9/30/1992
33.8928715,-10.0955573,27003,Kagzuli Borehole 2,Along Namakhamba River ,Borehole or tubewell,"TA Kyungu, Karonga, Malawi",2/7/2001
33.8456592,-9.9656135,6302,Mwenendeka borehole,Along ng'onga to Mukungwe primary school road,Borehole or tubewell,"TA Kyungu, Karonga, Malawi",9/20/1984
33.6472586,-10.4765796,28573,Gamba Clinic borehole ,Along nthalire /Rumphi road ,Borehole or tubewell,"STA Wavikaza, Chitipa, Malawi",10/24/2018
33.6458328,-10.5072426,6409,Guya LEA Primary school borehole ,Along nthalire /Rumphi road ,Borehole or tubewell,"STA Wavikaza, Chitipa, Malawi",10/12/2013
33.2455039,-11.4833751,958,Jeremia Nyirenda borehole,Along old Chama to Lundazi road,Borehole or tubewell,"TA Chindi, Mzimba, Malawi",9/23/2007
33.904214,-9.9573768,29584,Mwakifwamba 3 waterpoint,Along Road to Karonga airport,Borehole or tubewell,"Karonga Town, Karonga, Malawi",8/27/2017
33.6407501,-10.9503169,32958,Mwadandambi,Along Rumphi Nyika Road,Borehole or tubewell,"TA Chikulamayembe, Rumphi, Malawi",1/1/2006
34.0095219,-10.9176758,26693,Chamwahomwa,Along side the m1 road about 200 meters from pachichi pvt,Borehole or tubewell,"SC Mwankhunikira, Rumphi, Malawi",5/8/2017
33.981759,-10.9413237,33905,Chiling'Oma borehole,Along side the main road (about 20 meters),Borehole or tubewell,"SC Mwankhunikira, Rumphi, Malawi",3/2/2002
33.8164965,-9.9486825,15538,Mwenitete 3 waterpoint,Along silu lupaso masaf road,Borehole or tubewell,"TA Kyungu, Karonga, Malawi",11/18/2008
33.9332258,-10.0214274,22812,Mwasota malema borehole 5,Along st marys valley,Borehole or tubewell,"TA Kyungu, Karonga, Malawi",7/1/2019
33.6297249,-9.8786142,5988,Mwambinga borehole,Along Sukuti CBCC to Kabanga CBCC road,Borehole or tubewell,"TA Kyungu, Karonga, Malawi",8/1/2008
33.3625528,-11.6102768,128,Ziyaka Ngwira  borehole,Along Thale - Lukwelukwe road near Hon. Ngwira house,Borehole or tubewell,"TA Chindi, Mzimba, Malawi",11/14/2011
33.7444268,-10.9384883,33115,Chimayi waterpoint,Along the bolero to jumbi road,Borehole or tubewell,"TA Chikulamayembe, Rumphi, Malawi",1/1/1999
33.3521426,-11.6459093,19760,Joel Mhango borehole,Along the Lukwelukwe - Vithando road,Borehole or tubewell,"TA Chindi, Mzimba, Malawi",10/26/1998
33.9731356,-10.9578696,30964,Zgambo borehole,Along the M1 road,Borehole or tubewell,"SC Mwankhunikira, Rumphi, Malawi",9/1/2003
33.4172781,-11.3248351,30796,St. Hillary School borehole,Along the Madede to Manolo  road near LDF  block,Borehole or tubewell,"TA Chindi, Mzimba, Malawi",4/15/2014
33.3339474,-11.4947609,31357,Chang'anga School borehole,Along the roac to Madede m'mbali mwa ground la mpira,Borehole or tubewell,"TA Chindi, Mzimba, Malawi",8/21/2007
33.5803367,-10.9917779,6197,Kajitaye borehole,Along the road  Mwazisi from Kamphenda,Borehole or tubewell,"TA Chikulamayembe, Rumphi, Malawi",7/10/1996
34.055702,-10.7977362,24697,Kahami 2 borehole ,Along the road from chakanda to kahami,Borehole or tubewell,"SC Mwalweni, Rumphi, Malawi",9/22/2016
34.0268287,-10.7887845,29284,Chikakula 2 borehole ,Along the road from chivwanyuma to nkhomboli ,Borehole or tubewell,"SC Mwahenga, Rumphi, Malawi",9/6/1994
34.025303,-10.7692183,15100,Zunda borehole ,Along the road from gavu to zindasinthe village,Borehole or tubewell,"SC Mwalweni, Rumphi, Malawi",11/16/2016
33.3911874,-11.3378198,30659,Chimkalakate borehole,Along the road from Kasenga school to Mukwa Estate,Borehole or tubewell,"TA Chindi, Mzimba, Malawi",8/7/1986
33.3489764,-11.456565,19058,Mbuzi Mzumara borehole,Along the road from Mbalachanda to Madede but before Chankharamu turn off,Borehole or tubewell,"TA Chindi, Mzimba, Malawi",9/14/2019
33.3678983,-11.3586099,19894,Timote B borehole 3,Along the road from Mbalachanda trading centre going to  Apostolic pentecostal church of Great Britain(GB),Borehole or tubewell,"TA Chindi, Mzimba, Malawi",4/10/1993
34.0543813,-10.7854222,7870,Bundi borehole ,Along the road from mdimwa to kahami,Borehole or tubewell,"SC Mwalweni, Rumphi, Malawi",5/26/2016
34.0479789,-10.7934234,14382,Mdimwa clinic borehole,Along the road from mdimwa to zombe,Borehole or tubewell,"SC Mwalweni, Rumphi, Malawi",9/12/2013
34.0516148,-10.7955736,16856,Chikanda borehole ,Along the road from mdimwa to zombe ,Borehole or tubewell,"SC Mwalweni, Rumphi, Malawi",9/12/2006
34.0325286,-10.7723212,15820,Nkhomboli trading shallow well,Along the road from mhuju to lura,Borehole or tubewell,"SC Mwalweni, Rumphi, Malawi",7/15/2016
34.0515907,-10.7901083,3306,Mdimwa primary school borehole ,Along the road from Mshambo to kahami,Borehole or tubewell,"SC Mwalweni, Rumphi, Malawi",9/11/2013
34.054902,-10.7838866,3885,Bundi 2 shallow ,Along the road from Mshambo to kahami ,Borehole or tubewell,"SC Mwalweni, Rumphi, Malawi",2/19/2014
33.9390698,-9.993708,5256,Mwangolera (principal) 3 borehole,Along the road from mwenilondo trading centre to the lake,Borehole or tubewell,"TA Kyungu, Karonga, Malawi",1/1/1991
34.025518,-10.7490445,18460,Mkolasatto shallow well ,Along the road from nchenachena to nchenachena smallholder ,Borehole or tubewell,"SC Mwalweni, Rumphi, Malawi",
34.0252586,-10.7526587,4524,Nchenachena epa borehole ,Along the road from nchenachena to nchenachena smallholder ,Borehole or tubewell,"SC Mwalweni, Rumphi, Malawi",2/9/2000
34.0249407,-10.7886329,27176,Chikakula shallow well,Along the road from nchenachena to nkhomboli ,Borehole or tubewell,"SC Mwahenga, Rumphi, Malawi",8/14/2013
34.0331483,-10.7636014,15172,Kuchaka borehole,Along the road from nkhomboli to nchenachena trading ,Borehole or tubewell,"SC Mwalweni, Rumphi, Malawi",6/19/1996
33.672574,-10.968662,34316,Mwachanda borehole,Along the road of Rumphi Nyika,Borehole or tubewell,"TA Chikulamayembe, Rumphi, Malawi",9/14/2017
33.2581958,-11.4772264,7530,Shumba village borehole,Along the road to Chasengo primary  school,Borehole or tubewell,"TA Chindi, Mzimba, Malawi",7/13/2015
33.7954358,-11.271316,31136,Kamani Madise waterpoint ,Along the road to Chilukwa,Borehole or tubewell,"TA Mtwalo, Mzimba, Malawi",9/15/2010
34.028284,-10.8463966,1355,Kachiranthowa borehole ,Along the road to Chivungulu ,Borehole or tubewell,"SC Mwahenga, Rumphi, Malawi",8/29/2002
33.7804852,-11.1714927,29898,Kalama Full Primary School waterpoint ,Along the road to Elunyeni,Borehole or tubewell,"TA Mtwalo, Mzimba, Malawi",10/18/2006
33.4009956,-11.4615269,14952,Jalako mwale borehole,Along the road to euthinitiate near mongora school,Borehole or tubewell,"TA Chindi, Mzimba, Malawi",11/12/1994
33.2900712,-11.4627094,6005,Mpelemera borehole,Along the road to Jinga,Borehole or tubewell,"TA Chindi, Mzimba, Malawi",5/14/2014
33.8174907,-11.1764749,18805,Chimbambayila Mkandawire waterpoint ,Along the road to Kamwe ,Borehole or tubewell,"TA Mtwalo, Mzimba, Malawi",9/26/1956
33.8179861,-11.181779,2398,Chithira Chirwa waterpoint,Along the road to Kamwe ,Borehole or tubewell,"TA Mtwalo, Mzimba, Malawi",9/25/1957
33.6097047,-11.0331122,4935,Yawn to borehole 2,Along the road to Kasele School,Borehole or tubewell,"TA Chikulamayembe, Rumphi, Malawi",6/22/2002
33.7466683,-11.0734134,29308,Masowaka mweuka borehole ,Along the road to kasuma,Borehole or tubewell,"TA Mtwalo, Mzimba, Malawi",8/14/2007
33.7464702,-11.0779893,29307,Chingawawa Nkhonjera borehole ,Along the road to Kasuma ,Borehole or tubewell,"TA Mtwalo, Mzimba, Malawi",10/29/2002
33.7190488,-11.1231056,28213,Chito Mchizi borehole ,Along the road to kazuni ,Borehole or tubewell,"TA Mtwalo, Mzimba, Malawi",5/12/1999
33.9599304,-10.9333759,35771,Kamatang'Ombe,Along the road to lunyina river,Borehole or tubewell,"STA Chisovya, Rumphi, Malawi",4/1/2004
33.9861663,-10.9026331,31455,Kaputa borehole,Along the road to lunyina river,Borehole or tubewell,"SC Mwahenga, Rumphi, Malawi",2/5/1997
33.3482677,-11.4616982,6782,Chamaliwa School borehole 2,Along the road to Madede near trading centre,Borehole or tubewell,"TA Chindi, Mzimba, Malawi",3/27/2001
33.9313103,-10.9680213,30277,Bera school borehole,Along the road to mhuju,Borehole or tubewell,"STA Chisovya, Rumphi, Malawi",1/1/2017
33.982897,-10.8843686,30807,Luwagha vge,Along the road to mhuju,Borehole or tubewell,"SC Mwahenga, Rumphi, Malawi",5/24/2016
34.0098633,-10.8372893,5127,Mkhalira borehole ,Along the road to mhuju trading centre ,Borehole or tubewell,"SC Mwahenga, Rumphi, Malawi",1/1/2002
33.7702181,-11.3015944,31323,Mbomboma Nkosi waterpoint ,Along the road to Mtwalo,Borehole or tubewell,"TA Mtwalo, Mzimba, Malawi",9/22/1977
33.8281828,-11.2156722,15462,Spear Head waterpoint ,Along the road to Muwangwe,Borehole or tubewell,"TA Mtwalo, Mzimba, Malawi",9/13/1972
33.2979841,-11.5454489,22702,Ndakala Chavinda borehole,Along the road to Mzimba near Kumwenda maizemill,Borehole or tubewell,"TA Chindi, Mzimba, Malawi",6/22/2002
33.9189005,-11.0067261,31007,Kapirimwana Borehole,Along the road to Ngonga,Borehole or tubewell,"STA Chisovya, Rumphi, Malawi",12/10/2017
33.8538324,-11.1601408,21897,Jonasi Jere borehole,Along the road to Njakwa ,Borehole or tubewell,"TA Mtwalo, Mzimba, Malawi",11/26/2004
33.9965,-10.8387362,15472,Zgamakazi borehole,Along the road to pwapwa school,Borehole or tubewell,"SC Mwahenga, Rumphi, Malawi",3/6/2001
33.657703,-10.9177117,33220,Mkoloma water point,Along the road to sokolo primary school,Borehole or tubewell,"TA Chikulamayembe, Rumphi, Malawi",1/1/1997
33.5841191,-10.9156314,30789,Chiyekete borehole,Along the road to Thazima,Borehole or tubewell,"TA Chikulamayembe, Rumphi, Malawi",7/24/2001
33.3375214,-11.4822438,31280,Malata borehole,Along the road to Vitolotolo Estate,Borehole or tubewell,"TA Chindi, Mzimba, Malawi",8/21/2007
33.7696075,-11.0384278,23311,Gwamba Botha borehole ,Along the road to Vongo ,Borehole or tubewell,"TA Mtwalo, Mzimba, Malawi",4/18/2002
33.792012,-11.1099689,21829,Kamwe Roman Catholic Church waterpoint ,Along the road to Vongo ,Borehole or tubewell,"TA Mtwalo, Mzimba, Malawi",9/16/1970
33.7912827,-11.0499757,28980,Zozo Tembo borehole ,Along the road to Vongo ,Borehole or tubewell,"TA Mtwalo, Mzimba, Malawi",6/14/2007
33.6354434,-10.9428294,5702,Vitendwe borehole 3,Along the road toNyika,Borehole or tubewell,"TA Chikulamayembe, Rumphi, Malawi",6/21/2001
33.3266951,-11.6691297,5749,Chibisa Chirwa borehole,Along the Wanitaya - Kaonekera road,Borehole or tubewell,"TA Chindi, Mzimba, Malawi",12/23/2007
33.325838,-11.4314826,13197,Kaingo Yagamba  village borehole,Along the Zgambo - Masuku road,Borehole or tubewell,"TA Chindi, Mzimba, Malawi",10/31/2007
34.0587144,-10.7987621,459,Kahami borehole ,Along themail road from mdimwa to zombe ,Borehole or tubewell,"SC Mwalweni, Rumphi, Malawi",1/19/2012
33.4952479,-12.1233919,20468,Chibula kajani 2 borehole ,Along Thoza- Embangweni road,Borehole or tubewell,"TA Mzikubola, Mzimba, Malawi",2/13/2000
33.3289291,-11.689662,12944,Levi Mphande borehole,Along Wanitaya - Kaonekera road,Borehole or tubewell,"TA Chindi, Mzimba, Malawi",2/19/1993
33.8271813,-11.1079912,22111,Kaunga Nyirenda waterpoint ,Along zenda stream,Borehole or tubewell,"TA Mtwalo, Mzimba, Malawi",8/10/2007
33.9259594,-10.0105853,22158,Mwangolera principal borehole 7,Along zimbabwe valley,Borehole or tubewell,"TA Kyungu, Karonga, Malawi",9/9/1988
33.6248853,-12.3083627,4655,Kamwambakanthu school  borehole ,Alongside M1 road champhira  to msegede market ,Borehole or tubewell,"TA Mzikubola, Mzimba, Malawi",12/9/2005
33.6609401,-12.2412721,19137,Kathundu trading centre borehole ,Alongside M1 road from champhira to luviri ,Borehole or tubewell,"TA Mzikubola, Mzimba, Malawi",10/28/1996
33.6776629,-12.2775183,29158,Jona  nhlane borehole ,Alongside road from chipazi school to hoho CDSS ,Borehole or tubewell,"TA Mzikubola, Mzimba, Malawi",11/22/2008
33.6779823,-12.3153809,8423,Tupwenge school borehole ,Alongside road from Tupwenge school to hoho school ,Borehole or tubewell,"TA Mzikubola, Mzimba, Malawi",11/15/2004
33.6496989,-12.2786603,7894,Jailosi theu borehole ,Alongside road kazingilira school  to M1 ehehleni turnoff ,Borehole or tubewell,"TA Mzikubola, Mzimba, Malawi",7/15/2006
33.7195611,-12.2546001,22265,Msazi FP school borehole ,Alongside road path from msazi FP school to  chimtembo  village ,Borehole or tubewell,"TA Mzikubola, Mzimba, Malawi",8/12/1999
33.6573193,-12.2811,28948,Kanavula zimba borehole ,Alongside road path from the village headman to mseteka clan ,Borehole or tubewell,"TA Mzikubola, Mzimba, Malawi",8/15/1992
34.1203069,-10.7697584,15168,Changafwa borehole,Alongside the M1 road,Borehole or tubewell,"SC Mwankhunikira, Rumphi, Malawi",5/14/2001
34.1640422,-10.5860826,13944,Ndalemba borehole,Approximately 2 km West of chitimba primary school off M1 road,Borehole or tubewell,"SC Mwalweni, Rumphi, Malawi",1/1/2012
33.9226065,-11.0003385,8009,Mtukula water point,Approximately 200m from lukali trading center,Borehole or tubewell,"STA Chisovya, Rumphi, Malawi",3/25/2019
34.06576574,-11.44522577,34892,Lyson Mhone,Area 1B home bound,Borehole or tubewell,"TA Mtwalo, Mzimba, Malawi",1/1/2012
34.1898559,-10.6826782,35000,Luwuchi primary school borehole ,At  luwuchi primary ,Borehole or tubewell,"SC Mwalweni, Rumphi, Malawi",1/1/2000
33.668059,-10.9262199,29632,Adija waterpoint,At Adija mosque along the way to sokolo,Borehole or tubewell,"TA Chikulamayembe, Rumphi, Malawi",12/3/2014
33.8473877,-9.9306499,5029,Atufiweye cbcc waterpoint,At atufiweye cbcc,Borehole or tubewell,"TA Kyungu, Karonga, Malawi",1/1/2013
33.5853712,-10.8675273,30938,Bawa borehole,At Bawa  School ,Borehole or tubewell,"TA Chikulamayembe, Rumphi, Malawi",8/13/2014
33.7172842,-11.0579988,29604,Betere primary school water point,At Betere primary school,Borehole or tubewell,"TA Chikulamayembe, Rumphi, Malawi",7/1/2003
33.57032247,-10.91068573,32594,Jeka - Chipofya,At Blue Gumtree Tree,Borehole or tubewell,"TA Chikulamayembe, Rumphi, Malawi",1/1/1991
33.7428873,-10.9783785,31827, Bolero healthy centre borehole 2,At Bolero healthy centre ,Borehole or tubewell,"TA Chikulamayembe, Rumphi, Malawi",11/3/1974
33.7434153,-10.9785501,31023,Bolero healthy centre  borehole 1,At Bolero healthy centre ,Borehole or tubewell,"TA Chikulamayembe, Rumphi, Malawi",3/21/2004
33.7402588,-10.9742286,31016,Bolero primary school borehole 1,At Bolero primary school,Borehole or tubewell,"TA Chikulamayembe, Rumphi, Malawi",6/12/1993
33.7402388,-10.9725769,4830,Bolero primary school borehole 2,At bolero primary school ,Borehole or tubewell,"TA Chikulamayembe, Rumphi, Malawi",8/14/1991
33.6856558,-11.1020562,8432,Bowe school water point ,At bowe school ,Borehole or tubewell,"TA Mpherembe, Mzimba, Malawi",3/3/2000
33.8493372,-11.0245993,17756,Bumba primary school water point 2,At bumba primary school,Borehole or tubewell,"Rumphi Boma, Rumphi, Malawi",6/22/1993
33.8491874,-11.02483593,1858,Bumba Monitoring well ,At Bumba Primary school (Rumphi) about 30m south of Headmaster's office ,Borehole or tubewell,"Rumphi Boma, Rumphi, Malawi",1/1/2016
33.849321,-11.0246217,31203,Bumba school borehole,At bumba school,Borehole or tubewell,"Rumphi Boma, Rumphi, Malawi",4/20/2014
33.7803279,-10.0341827,17549,Bvungu primary school waterpoint,At bvungu primary school,Borehole or tubewell,"TA Kyungu, Karonga, Malawi",11/4/2015
33.8824834,-9.9463532,22042,Bwibwa ccap borehole1,At bwibwa ccap church,Borehole or tubewell,"Karonga Town, Karonga, Malawi",4/1/2016
33.8828058,-9.9466241,23552,Bwibwa ccap borehole2,At bwibwa ccap church,Borehole or tubewell,"Karonga Town, Karonga, Malawi",1/1/2015
33.8898643,-9.9478406,16580,Bwibwa ccap primary school water point,At bwibwa ccap primary school,Borehole or tubewell,"Karonga Town, Karonga, Malawi",7/2/2013
33.4784084,-11.5590279,14934,Chaboli CDSS Borehole,At Chaboli CDSS,Borehole or tubewell,"TA Chindi, Mzimba, Malawi",1/4/2000
33.4797987,-11.5606486,16190,Chaboli FP School Borehole 1,At Chaboli FP School Borehole,Borehole or tubewell,"TA Chindi, Mzimba, Malawi",12/22/1995
34.0430058,-11.3758974,26215,Chamala za primary borehole ,At chamala za school,Borehole or tubewell,"TA Mtwalo, Mzimba, Malawi",2/10/2005
33.38173,-12.0806324,23284,Chanjobvu primary schoolborehole,At Chanjobvu school,Borehole or tubewell,"TA M'Mbelwa, Mzimba, Malawi",1/1/2000
33.5578957,-10.89980767,32694,Chankhalamu Primary School borehole,At Chankhalamu School,Borehole or tubewell,"TA Chikulamayembe, Rumphi, Malawi",1/1/1997
33.6787255,-10.9724048,18426,Chankhomi Primary School Borehole,At Chankhomi Primary School,Borehole or tubewell,"TA Chikulamayembe, Rumphi, Malawi",6/23/1999
33.7325644,-11.0361777,6139,Chanyoli primary school borehole ,At chanyoli full primary school ,Borehole or tubewell,"TA Chikulamayembe, Rumphi, Malawi",5/29/1996
33.488261,-11.7341133,1248,Chasisi JP School Borehole,At Chasisi JP School Borehole,Borehole or tubewell,"TA Chindi, Mzimba, Malawi",11/13/2018
33.3897152,-12.0614405,30920,Jubeka,At Chauma,Borehole or tubewell,"TA M'Mbelwa, Mzimba, Malawi",3/29/2015
33.7673198,-11.0126677,30870,Chikwawa community day secondary school,At chikwawa community day secondary school,Borehole or tubewell,"TA Chikulamayembe, Rumphi, Malawi",1/1/2006
33.7727922,-11.0070244,1180,Chikwawa primary school water point,At chikwawa primary school,Borehole or tubewell,"TA Chikulamayembe, Rumphi, Malawi",1/1/1994
33.7755793,-11.016296,30573,Chikwawa trading centre borehole,At Chikwawa trading centre ,Borehole or tubewell,"TA Chikulamayembe, Rumphi, Malawi",3/7/1974
33.984403,-10.0885732,16528,Chinsogholo school waterpoint,At chinsogholo school,Borehole or tubewell,"TA Kyungu, Karonga, Malawi",1/1/2004
33.9014332,-11.4677244,27013,Chipapa Primary school borehole ,At Chipapa Primary school ,Borehole or tubewell,"SC Kampingo Sibande, Mzimba, Malawi",12/11/2010
33.9127082,-11.304235,5128,Chisangano School borehole ,At chisangano school ,Borehole or tubewell,"TA Mtwalo, Mzimba, Malawi",7/16/1997
34.1678761,-10.5834496,31125,Mwanandine borehole,At chitimba ccap,Borehole or tubewell,"SC Mwalweni, Rumphi, Malawi",1/1/2004
34.1706093,-10.597639,2008,Chitimba health center water system,At chitimba health center,Borehole or tubewell,"SC Mwalweni, Rumphi, Malawi",1/1/1999
34.1701874,-10.583043,18237,Chitimba school borehole,At chitimba school,Borehole or tubewell,"SC Mwalweni, Rumphi, Malawi",1/1/2011
34.184463,-10.6966789,8018,Chiweta islamic borehole ,At chiweta trading center,Borehole or tubewell,"SC Mwalweni, Rumphi, Malawi",2/2/2010
33.797829,-11.0059257,2704,Chozoli school,At chozoli school ,Borehole or tubewell,"TA Chikulamayembe, Rumphi, Malawi",1/1/2001
33.8403578,-11.0092163,15036,Chuzu mosque borehole,At chuzu mosque,Borehole or tubewell,"Rumphi Boma, Rumphi, Malawi",2/3/2016
33.9456355,-11.3998962,28531,Dunduzu Primary school borehole ,At Dunduzu Primary school ,Borehole or tubewell,"TA Mtwalo, Mzimba, Malawi",1/1/1997
33.29430426,-11.53622227,8418,Echilumbeni Monitoring well ,At Echilumbeni Primary school ,Borehole or tubewell,"TA Chindi, Mzimba, Malawi",1/1/2014
33.89789,-11.423345,25414,Ekwaiweni health centre borehole ,At Ekwaiweni health centre ,Borehole or tubewell,"TA Mtwalo, Mzimba, Malawi",8/23/2000
33.8811758,-11.3090581,28340,Engcongolweni School borehole ,At Engcongolweni School ,Borehole or tubewell,"TA Mtwalo, Mzimba, Malawi",12/12/1995
33.88070027,-11.30963377,1796,Enqcongolweni Monitoring well ,At Enqcongolweni Primary school Mzimba 50m west of the standard 5 block ,Borehole or tubewell,"TA Mtwalo, Mzimba, Malawi",1/2/2012
33.8632891,-11.4645109,19554,Enyezini primary school borehole 1,At Enyezini primary school ,Borehole or tubewell,"SC Kampingo Sibande, Mzimba, Malawi",1/1/1996
33.864135,-11.4646418,5145,Enyezini primary school borehole 2,At Enyezini primary school ,Borehole or tubewell,"SC Kampingo Sibande, Mzimba, Malawi",10/30/2001
33.8560151,-11.4725009,24211,Enyezini Under 5 Clinic borehole ,At Enyezini Trading Centre ,Borehole or tubewell,"SC Kampingo Sibande, Mzimba, Malawi",12/21/1994
33.7518567,-10.1685362,29450,Uledi game Reserve comp ,At game Reserve comp ,Borehole or tubewell,"STA Nthengatenga, Chitipa, Malawi",5/6/2014
33.9710067,-10.9094322,32243,Ganje,At Ganje vge,Borehole or tubewell,"SC Mwahenga, Rumphi, Malawi",1/1/1986
33.7156061,-11.0841516,30486,Kalandalanda water point ,At Kalandalanda  ,Borehole or tubewell,"TA Chikulamayembe, Rumphi, Malawi",4/7/2017
33.9158183,-11.3240817,27760,Kalihoro mosque borehole ,At kalihoro mosque ,Borehole or tubewell,"TA Mtwalo, Mzimba, Malawi",11/1/2013
33.645208,-9.9117764,31664,Kalowe LEA School's borehole ,At Kalowe LEA School,Borehole or tubewell,"TA Kyungu, Karonga, Malawi",10/20/2008
33.5806811,-11.040604,29732,Kamphenda CDSS Water point ,At kamphenda CDSS,Borehole or tubewell,"TA Chikulamayembe, Rumphi, Malawi",1/1/2002
33.4905899,-11.3427649,16156,Kapando CDSS borehole,At Kapando CDSS 10 m from euthini to Mzuzu road,Borehole or tubewell,"TA Chindi, Mzimba, Malawi",11/29/2007
33.6920823,-11.0217477,30986,Kapyolambavi primary school waterpoint,At kapyolambavi primary schhol,Borehole or tubewell,"TA Chikulamayembe, Rumphi, Malawi",5/1/2017
33.6920244,-11.0247227,29637, kapyolambavi prison farm water point,At kapyolambavi prison farm,Borehole or tubewell,"TA Chikulamayembe, Rumphi, Malawi",5/1/2017
33.8889398,-9.9404575,4516,Karonga diocese waterpoint,At karonga diocese,Borehole or tubewell,"Karonga Town, Karonga, Malawi",1/1/2012
33.8295124,-10.0147049,7697,Kasanu under/5 clinic,At Kasano under/5 clinic,Borehole or tubewell,"TA Kyungu, Karonga, Malawi",10/30/1998
33.8308658,-10.0028688,5993,Kasikizi FP school borehole,At kasikizi FP school,Borehole or tubewell,"TA Kyungu, Karonga, Malawi",6/5/2017
33.6827345,-11.0636407,30341,Kasongwe school water point ,At kasongwe primary school ,Borehole or tubewell,"TA Chikulamayembe, Rumphi, Malawi",4/1/2017
33.3754267,-11.5388055,32014,Katunguwiri cdss borehole,At katunguwiri cdss,Borehole or tubewell,"TA Chindi, Mzimba, Malawi",6/8/2014
33.93574,-11.3107467,27798,Kayowera School borehole ,At kayowera School ,Borehole or tubewell,"TA Mtwalo, Mzimba, Malawi",8/25/2018
33.6885354,-9.9699384,28996,Kayuni CDSS water point,At Kayuni CDSS,Borehole or tubewell,"TA Kyungu, Karonga, Malawi",1/20/2006
33.6822699,-9.9662298,34807,Kayuni School borehole,At Kayuni FP School,Borehole or tubewell,"TA Kyungu, Karonga, Malawi",10/18/2012
34.1673085,-10.5934494,14803,Mkondowe-karonga borehole,At livingstonia road junction along M1 road,Borehole or tubewell,"SC Mwalweni, Rumphi, Malawi",1/1/2007
33.9613442,-10.0370701,20031,Lughali primary school waterpoint 1,At lughali primary school,Borehole or tubewell,"TA Kyungu, Karonga, Malawi",7/2/2014
33.9622189,-10.0372719,20666,Lughali primary school waterpoint 2,At lughali primary school,Borehole or tubewell,"TA Kyungu, Karonga, Malawi",1/1/1989
33.612453,-11.0694243,30778,Luanar.ac Primary School borehole,At Luhanga School,Borehole or tubewell,"TA Chikulamayembe, Rumphi, Malawi",10/26/1997
33.9037499,-9.9335137,8122,Lukulu primary school waterpoint,At lukulu primary school,Borehole or tubewell,"Karonga Town, Karonga, Malawi",1/1/2008
33.7396913,-10.9244907,18400,Lundu primary school water point,At Lundu primary school,Borehole or tubewell,"TA Chikulamayembe, Rumphi, Malawi",6/17/1993
33.73865919,-10.92472217,1861,Lundu Monitoring well,At Lundu Primary school (Rumphi) close to teachers houses,Borehole or tubewell,"TA Chikulamayembe, Rumphi, Malawi",1/1/2010
33.9882874,-10.0533134,17904,Lupembe dip tank waterpoint,At lupembe dip tank,Borehole or tubewell,"TA Kyungu, Karonga, Malawi",1/1/1960
34.0103324,-10.908198,4387,Lusimbo borehole,At lusimbo school,Borehole or tubewell,"SC Mwankhunikira, Rumphi, Malawi",5/4/2001
33.6499579,-10.9591734,24747,Luxurious Primary School Borehole,At luviri primary  school ,Borehole or tubewell,"TA Chikulamayembe, Rumphi, Malawi",1/1/1997
33.6504419,-10.9578529,30329,Luviri primary school borehole 1,At Luviri School,Borehole or tubewell,"TA Chikulamayembe, Rumphi, Malawi",7/1/1993
33.350928,-11.6949083,24947,Luwewe FP School Borehole,At Luwewe FP School,Borehole or tubewell,"TA Chindi, Mzimba, Malawi",9/6/2007
33.6298212,-11.0390665,8440,Magalasi primary school water point  1,At Magalasi primary school ,Borehole or tubewell,"TA Chikulamayembe, Rumphi, Malawi",6/14/2011
33.6301609,-11.0382379,25567,Magalasi primary school water point 2,At Magalasi primary school ,Borehole or tubewell,"TA Chikulamayembe, Rumphi, Malawi",5/1/2017
33.9134301,-9.9467547,31967,Mwanduwanga borehole,At malema 2 mwakiyo trading center,Borehole or tubewell,"Karonga Town, Karonga, Malawi",9/1/1990
33.9431639,-11.4546033,26776,Malivenje Primary school borehole ,At Malivenji Primary school ,Borehole or tubewell,"SC Kampingo Sibande, Mzimba, Malawi",1/1/1999
33.8969016,-11.4852774,26373,Matuli Health Centre borehole ,At Matuli health centre ,Borehole or tubewell,"SC Kampingo Sibande, Mzimba, Malawi",1/1/2010
33.8970884,-11.48688,26207,Matuli Primary school borehole ,At Matuli Primary school ,Borehole or tubewell,"SC Kampingo Sibande, Mzimba, Malawi",6/6/2000
34.0190809,-10.8219399,30897,Mwachifumya vge borehole,At mbulunji trading centre,Borehole or tubewell,"SC Mwahenga, Rumphi, Malawi",6/17/2003
34.14202,-10.7034844,6192,Mchenga primary school borehole,At mchenga primary school ,Borehole or tubewell,"SC Mwalweni, Rumphi, Malawi",1/1/2002
33.9979357,-10.8665041,18739,Mhuju hospital,At mhuju hospital,Borehole or tubewell,"SC Mwahenga, Rumphi, Malawi",6/28/2017
33.9933834,-10.8669966,30972,Mhuju primary school borehole ,At mhuju primary school ,Borehole or tubewell,"SC Mwahenga, Rumphi, Malawi",9/28/1998
33.7083883,-10.9048521,20289,Mkama primary school waterpoint,At Mkama primary school,Borehole or tubewell,"TA Chikulamayembe, Rumphi, Malawi",10/29/1997
33.9791175,-10.9436334,15844,Mkombezi Area 18 clinic borehole ,At Mkombezi Area Area 18 clinic ,Borehole or tubewell,"SC Mwankhunikira, Rumphi, Malawi",5/29/1996
33.9849687,-10.9552299,30746,Mkombezi CDSS Borehole,At mkombezi cdss,Borehole or tubewell,"SC Mwankhunikira, Rumphi, Malawi",11/9/2018
33.9765986,-10.9477758,8442,Mkombezi primary school borehole ,"At Mkombezi primary school, near M1 Road",Borehole or tubewell,"SC Mwankhunikira, Rumphi, Malawi",3/10/2004
33.7097241,-11.0931048,30433,Mahowe water point ,At mkonongo community,Borehole or tubewell,"TA Chikulamayembe, Rumphi, Malawi",10/9/2013
33.7004355,-11.0943349,30414,Chiluvya water point ,At mkonongo community ,Borehole or tubewell,"TA Chikulamayembe, Rumphi, Malawi",8/14/2012
33.8152506,-9.9603556,30196,Mpata health centre,At Mpata health centre,Borehole or tubewell,"TA Kyungu, Karonga, Malawi",1/1/1973
33.8147537,-9.9655691,30923,Mpata secondary school waterpoint,At Mpata secondary school,Borehole or tubewell,"TA Kyungu, Karonga, Malawi",12/15/2013
33.7502371,-10.9342313,2244,Mphande primary school borehole ,At mphande primary school ,Borehole or tubewell,"TA Chikulamayembe, Rumphi, Malawi",4/9/2004
34.0038968,-10.8401443,12289,Mphwamphwa primary school borehole ,At mphwamphwa primary school ,Borehole or tubewell,"SC Mwahenga, Rumphi, Malawi",7/21/1998
33.6836361,-10.9729197,29621,Mwachanda Muslim center water point,At mwachanda mosque ,Borehole or tubewell,"TA Chikulamayembe, Rumphi, Malawi",11/27/2014
34.0286172,-10.8342488,33263,Mwachifumya vge borehole,At mwachifumya vge,Borehole or tubewell,"SC Mwahenga, Rumphi, Malawi",6/5/2017
33.8864337,-9.9649803,30533,Mwakifwamba youth centre waterpoint,At mwakifwamba youth centre,Borehole or tubewell,"Karonga Town, Karonga, Malawi",11/6/2011
33.8303833,-9.9250523,24625,Mwanganya 2 waterpoint,At mwanganya 2 cbcc,Borehole or tubewell,"TA Kyungu, Karonga, Malawi",12/14/2014
33.6859235,-11.0692415,20331,Mwavungama water point ,At Mwavungama Mangulenje near Mr George's house,Borehole or tubewell,"TA Chikulamayembe, Rumphi, Malawi",1/1/2006
34.0554119,-10.9942243,19844,Mzale primary school borehole,At mzale primary school,Borehole or tubewell,"SC Mwankhunikira, Rumphi, Malawi",9/22/2003
34.0316162,-10.9086834,7186,Mzokoto primary school borehole,At mzokoto primary school,Borehole or tubewell,"SC Mwankhunikira, Rumphi, Malawi",7/7/2011
34.0229326,-10.9656201,22179,Mzungutwa primary school borehole,At mzungutwa primary school,Borehole or tubewell,"SC Mwankhunikira, Rumphi, Malawi",5/9/2006
33.9436534,-10.9393552,17435,Ng'onga  health centre borehole ,At Ng'onga health centre ,Borehole or tubewell,"STA Chisovya, Rumphi, Malawi",2/21/2004
33.8066268,-9.9611892,30641,Nkhando fp school waterpoint 2,At nkhando fp school,Borehole or tubewell,"TA Kyungu, Karonga, Malawi",1/1/1988
33.6398094,-11.0276864,24951,Nkhawele estate water point ,At Nkhawele estate,Borehole or tubewell,"TA Chikulamayembe, Rumphi, Malawi",6/8/1994
33.63765791,-10.34815256,2906,Nthalire Monitoring well ,At Nthalire WUA office about 100m east of Nthalire post office ,Borehole or tubewell,"TA Nthalire, Chitipa, Malawi",1/1/2017
34.0093658,-10.1356341,16865,Nthambo U/5 Clinic borehole,At Nthambo U/5 Clinic,Borehole or tubewell,"TA Kyungu, Karonga, Malawi",9/10/1997
33.4948523,-11.5287251,30804,Nthengwe primary school borehole,At nthe Gwent primary school,Borehole or tubewell,"TA Chindi, Mzimba, Malawi",3/8/2007
33.5947498,-10.829912,26309,Kaswerera borehole ,At nyika national park ,Borehole or tubewell,"Nyika National Park - Rumphi, Rumphi, Malawi",1/1/1993
33.8409454,-11.4963423,25026,Phuthula Primary school borehole ,At Phuthula Primary school ,Borehole or tubewell,"SC Kampingo Sibande, Mzimba, Malawi",11/12/2018
34.0461078,-10.8845351,28107,Vunda borehole ,At phwezi trading centre ,Borehole or tubewell,"SC Mwankhunikira, Rumphi, Malawi",1/1/2004
33.8522506,-11.005305,3563,Rumphi Bible believer church borehole,At Rumphi bible believer church,Borehole or tubewell,"Rumphi Boma, Rumphi, Malawi",11/9/2012
33.4674459,-12.1303028,8303,Kamuganje borehole,At simon jere village near roman Catholic church,Borehole or tubewell,"TA Mzukuzuku, Mzimba, Malawi",7/19/2007
33.560699,-11.0308207,20307,Sinjiliheni primary school water point 1,At sinjiliheni primary school ,Borehole or tubewell,"TA Chikulamayembe, Rumphi, Malawi",3/9/2006
33.5607328,-11.029969,30795,Sinjiliheni primary school water point 2,At sinjiliheni primary school ,Borehole or tubewell,"TA Chikulamayembe, Rumphi, Malawi",9/25/2013
33.6523588,-10.9169159,1827,Sokolo primary school water point,At sokolo primary s hool,Borehole or tubewell,"TA Chikulamayembe, Rumphi, Malawi",10/28/1997
33.8541698,-11.0122139,31714,St Dennis primary school borehole,At st Dennis primary school,Borehole or tubewell,"Rumphi Boma, Rumphi, Malawi",1/11/1999
33.8285819,-10.0286835,29680,St Joseph school borehole,At St Joseph school,Borehole or tubewell,"TA Kyungu, Karonga, Malawi",9/21/2010
33.9774665,-10.9420044,7512,Lusulumphala borehole,At T/A Mwakhunikira's compound,Borehole or tubewell,"SC Mwankhunikira, Rumphi, Malawi",1/1/1994
33.5464899,-11.7137432,94,Ngomiawo Moyo  1 borehole ,At the  junction to  visenthe ,Borehole or tubewell,"TA Chindi, Mzimba, Malawi",1/1/1994
34.0508341,-10.9347151,19015,Lungazi school borehole,At the base of mwatchuka mountain,Borehole or tubewell,"SC Mwankhunikira, Rumphi, Malawi",10/21/2013
33.4656125,-11.4721678,5343,Kasalu primary school borehole ,At the centre of kasalu primary school,Borehole or tubewell,"TA Chindi, Mzimba, Malawi",8/27/1983
33.8871846,-9.9159961,30514,Mwakyelu borehole,At the centre of Masoko trading,Borehole or tubewell,"TA Kyungu, Karonga, Malawi",9/19/2001
34.0211648,-10.902094,5704,Mgomakhanda borehole,At the chief's compound,Borehole or tubewell,"SC Mwankhunikira, Rumphi, Malawi",6/8/2004
33.9756095,-10.9430962,33287,Mthunzi borehole,At the group village headman's compound,Borehole or tubewell,"SC Mwankhunikira, Rumphi, Malawi",5/4/2004
34.0015894,-10.8488162,31304,Zgatepeta junction borehole ,At the junction to mhuju ,Borehole or tubewell,"SC Mwahenga, Rumphi, Malawi",6/23/2000
34.0299422,-10.9078151,31638,Mzokoto market borehole,At the market,Borehole or tubewell,"SC Mwankhunikira, Rumphi, Malawi",1/1/1952
34.1030685,-10.8197077,31982,Bale full primary school borehole,At the primary school,Borehole or tubewell,"SC Mwankhunikira, Rumphi, Malawi",3/30/2018
33.3624452,-11.5383633,25304,Kanyankhunde primary school bore hole,At the primary school,Borehole or tubewell,"TA Chindi, Mzimba, Malawi",3/21/1993
33.3990479,-11.4648165,12935,Mongora primary school borehole ,At the school under melayina trees,Borehole or tubewell,"TA Chindi, Mzimba, Malawi",9/22/2005
34.0105104,-10.9178826,26478,Pachichi pvt secondary school borehole,At the secondary school,Borehole or tubewell,"SC Mwankhunikira, Rumphi, Malawi",1/4/2002
34.1702968,-10.7562375,35312,Maduna Monjera borehole,At the valley,Borehole or tubewell,"STA Njikula, Rumphi, Malawi",10/5/2018
33.9762176,-10.9586898,33153,Kayunikalira borehole,At the village headman's compound,Borehole or tubewell,"SC Mwankhunikira, Rumphi, Malawi",1/23/2004
34.1803499,-10.6138706,3206,Thekero borehole,At thekero school,Borehole or tubewell,"SC Mwalweni, Rumphi, Malawi",5/9/2012
34.17914994,-10.61056506,31794,Mangenje borehole,At thekero trading center,Borehole or tubewell,"SC Mwalweni, Rumphi, Malawi",1/1/1997
33.4773296,-11.6864786,31077,Tonthowele FP school Borehole,At Tonthowele FP School,Borehole or tubewell,"TA Chindi, Mzimba, Malawi",3/6/2010
33.8130855,-9.9858991,11693,Towo primary school waterpoint,At towo primary school,Borehole or tubewell,"TA Kyungu, Karonga, Malawi",10/27/2011
33.7480046,-10.1671081,29452,Uledi primary school borehole ,At Uledi primary school ,Borehole or tubewell,"STA Nthengatenga, Chitipa, Malawi",10/1/2002
34.0985154,-10.9704746,19327,Usowoya primary school borehole,At usowoya primary school,Borehole or tubewell,"SC Mwankhunikira, Rumphi, Malawi",3/19/2000
33.9782124,-10.9377894,31115,Chihombo borehole,At village headman's compound,Borehole or tubewell,"SC Mwankhunikira, Rumphi, Malawi",8/3/2009
33.613776,-9.8909522,19956,Wiriro Orphan Care borehole,At Wiriro Orphan Care Warehouse,Borehole or tubewell,"TA Kyungu, Karonga, Malawi",11/26/2011
33.4280462,-11.7427204,7069,Yeleyele FP School Borehole,At Yeleyele FP School,Borehole or tubewell,"TA Chindi, Mzimba, Malawi",9/9/2015
33.820266,-11.455487,20247,Mthusani Ngulube,Beautiful fence,Borehole or tubewell,"TA Mtwalo, Mzimba, Malawi",
33.5849792,-11.9091368,8102,Kabwakachule behole ,Behand mzimba preson ,Borehole or tubewell,"Mzimba Boma, Mzimba, Malawi",1/1/2002
33.5360321,-11.7627098,3528,Ulaya Mhoni  borehole ,Behind  banana plantations ,Borehole or tubewell,"TA Chindi, Mzimba, Malawi",9/10/1998
33.5508452,-11.6710361,3605,Chalunga primary  school BH,Behind  std 6& 7 block,Borehole or tubewell,"TA Chindi, Mzimba, Malawi",10/3/2016
33.5503999,-11.761391,31785,Chenyentha Mphepo borehole ,Behind banana plantations ,Borehole or tubewell,"TA Chindi, Mzimba, Malawi",6/4/2016
33.5994896,-11.736983,7539,Chiduswa Moyo borehole ,Behind banana plantations ,Borehole or tubewell,"TA Chindi, Mzimba, Malawi",11/9/2002
33.6280115,-11.7177778,21797,Daulire Moyo borehole ,Behind banana plantations ,Borehole or tubewell,"SC Kampingo Sibande, Mzimba, Malawi",10/20/1998
33.5561541,-11.7486948,8109,Kamkeka  Lowole BH ,Behind banana plantations ,Borehole or tubewell,"TA Chindi, Mzimba, Malawi",10/20/1999
33.78816436,-11.01801603,5275,Kaiwale Chirambo borehole ,Behind Botswana maize mill,Borehole or tubewell,"TA Chikulamayembe, Rumphi, Malawi",1/1/1999
33.5186429,-11.9035555,31333,Mujumila Banda Village borehole ,Behind Champinga School football ground ,Borehole or tubewell,"TA M'Mbelwa, Mzimba, Malawi",7/19/2004
33.4159706,-11.4515564,31870,T/A Chindi borehole ,Behind Fumbani Hardware ,Borehole or tubewell,"TA Chindi, Mzimba, Malawi",6/7/1994
33.5315708,-11.8956268,28686,Bizeki 2 borehole ,Behind Jalawe CCAP Church ,Borehole or tubewell,"TA M'Mbelwa, Mzimba, Malawi",10/2/2017
33.5107775,-11.8625867,8029,Kamtowa primary school borehole ,"Behind kamtowa, primary school block",Borehole or tubewell,"TA M'Mbelwa, Mzimba, Malawi",9/12/2015
33.8929812,-9.9746549,35251,Mwanalopa 2  chanthenda borehole 1,Behind karonga teacher training college,Borehole or tubewell,"Karonga Town, Karonga, Malawi",6/15/2012
33.8928977,-9.9747606,20673,Mwamalopa 2 chanthenda borehole 2,Behind Karonga Teachers Training College,Borehole or tubewell,"Karonga Town, Karonga, Malawi",6/10/2002
33.4638324,-11.3887601,16798,Kaviyombo School borehole ,Behind Kaviyombo  primary school ,Borehole or tubewell,"TA Chindi, Mzimba, Malawi",5/28/2005
33.6079979,-11.9568456,4827,Kazomba CDSS,Behind Kazomba Trading Centre,Borehole or tubewell,"TA Mzikubola, Mzimba, Malawi",5/11/2005
33.9716188,-10.0663895,7227,Lupembe Agriculture Waterpoint 2,Behind lupembe agriculture buildings,Borehole or tubewell,"TA Kyungu, Karonga, Malawi",1/1/2002
33.3793654,-11.3845691,31177,Chiliuli borehole 1,Behind Mr Gondwe's house,Borehole or tubewell,"TA Chindi, Mzimba, Malawi",9/14/2001
33.3344763,-11.4890715,31354,Sonkho borehole,Behind Mr Mvula's house,Borehole or tubewell,"TA Chindi, Mzimba, Malawi",8/20/2007
33.5149072,-11.7753518,25418,Makulande School borehole ,Behind School block,Borehole or tubewell,"TA Chindi, Mzimba, Malawi",6/6/2018
33.2762238,-11.4621518,15866,Jinga School borehole,Behind staff house,Borehole or tubewell,"TA Chindi, Mzimba, Malawi",7/28/1998
33.3725112,-11.4006177,31183,Mchinkhula School borehole,Behind staff houses,Borehole or tubewell,"TA Chindi, Mzimba, Malawi",9/5/2007
33.3245662,-11.4241038,35163,Kapija School borehole,Behind Standard 5&6 block,Borehole or tubewell,"TA Chindi, Mzimba, Malawi",5/30/2000
33.377324,-11.613753,5626,Mazaza School borehole,Behind Std 1 block,Borehole or tubewell,"TA Chindi, Mzimba, Malawi",11/16/2018
33.4458639,-11.9467202,10352,Mbwenu Chirwa Guest house,Behind the guesthouse,Borehole or tubewell,"TA M'Mbelwa, Mzimba, Malawi",
33.5199258,-11.9029465,33674,Champinga Primary school borehole ,Behind the school administration block,Borehole or tubewell,"TA M'Mbelwa, Mzimba, Malawi",1/10/2005
33.8742521,-9.9215901,30720,Chilanga,Behind two big mango trees,Borehole or tubewell,"TA Kyungu, Karonga, Malawi",10/24/2000
33.4587378,-11.3982209,15270,Mbonde Ng'omar borehole,Behind Yakuwata turn off signpost ,Borehole or tubewell,"TA Chindi, Mzimba, Malawi",9/27/2009
33.916123,-11.0581362,19288,Kabiya borehole ,Behind Zikomo Maize mill,Borehole or tubewell,"SC Jaravikuba Munthali, Mzimba, Malawi",4/26/1999
33.685097,-11.9389354,35478,Lwanda Loseni Village,"Below the houses, in maize field",Borehole or tubewell,"TA Mzikubola, Mzimba, Malawi",
33.584599,-11.9068896,29272,Kazengo borehole,Beside kazengo school,Borehole or tubewell,"Mzimba Boma, Mzimba, Malawi",1/1/2004
33.5690793,-11.6280428,31969,Kampingo Nyambose borehole ,Beside mzalangwe road ,Borehole or tubewell,"TA Chindi, Mzimba, Malawi",1/1/1998
33.9312235,-9.9209839,30823,Kafikisila borehole ,Between big tree and Chang alarm school,Borehole or tubewell,"Karonga Town, Karonga, Malawi",7/31/2014
33.9313785,-11.2565187,29356,Chipetupetu Chione borehole ,Between chathipa and Chamono rivers ,Borehole or tubewell,"TA Mtwalo, Mzimba, Malawi",10/26/2008
33.9313689,-9.9411221,8457,Lusubilo orphan care borehole,Between lusubilo youth centre and tuntufye radio station,Borehole or tubewell,"Karonga Town, Karonga, Malawi",10/24/2006
33.8909041,-9.8699498,30827,Kasowa CDSS borehole ,Between Msangu sangu tree and Kasowa CDSS school ,Borehole or tubewell,"TA Kyungu, Karonga, Malawi",12/7/2004
33.9881591,-10.9178061,11443,Nthenje hospital borehole ,Between Nthenje SDA Church and Nthenje hospital,Borehole or tubewell,"SC Mwankhunikira, Rumphi, Malawi",6/25/1960
33.3491894,-11.4620071,31135,Chamaliwa School borehole,Between school blocks and staff houses,Borehole or tubewell,"TA Chindi, Mzimba, Malawi",10/4/1972
33.9095962,-9.9544818,20078,Karonga guardian shelter borehole,Between the hospital kitchen and hospital,Borehole or tubewell,"Karonga Town, Karonga, Malawi",9/20/1984
33.387862,-12.2210431,4490,Bitiku Qoto borehole. ,Bitiku Qoto borehole 300m near kanyenyezi primary school. ,Borehole or tubewell,"TA Mzukuzuku, Mzimba, Malawi",5/11/2019
33.5743058,-11.1817221,27259,Razero Mbulo borehole ,Bluegum tree,Borehole or tubewell,"TA Mpherembe, Mzimba, Malawi",11/20/2007
33.7686178,-11.9430738,22524,Thanthe Full Primary School Borehole ,Bluegum tree,Borehole or tubewell,"TA Mzikubola, Mzimba, Malawi",7/21/2008
33.8194236,-11.3864201,26988,Gideon borehole ,Bwabwa -transmitter road ,Borehole or tubewell,"TA Mtwalo, Mzimba, Malawi",5/16/2000
33.4860423,-11.9565261,35479,Kavila Chipeta Village,By the pathroad,Borehole or tubewell,"TA M'Mbelwa, Mzimba, Malawi",
33.6148138,-11.4250928,14703,Nemon  mlotha,cClose  to mphimbi road,Borehole or tubewell,"TA Mtwalo, Mzimba, Malawi",9/20/1999
33.4312919,-12.2402067,17038,Mabiri cdss borehole ,Cen tre of cdss .,Borehole or tubewell,"TA Mzukuzuku, Mzimba, Malawi",
33.392975,-12.1676072,22553,Matikija primary school borehole ,Cen tre of Matikija campus east 2m,Borehole or tubewell,"TA Mzukuzuku, Mzimba, Malawi",6/16/1998
33.4300291,-12.245872,7937,Kawale chirwa village,Cen treatment of Mabiri facility,Borehole or tubewell,"TA Mzukuzuku, Mzimba, Malawi",8/3/2019
33.3745881,-12.2604391,34228,Mtuzuzu cdss ,Centre of cdss mtuzuzu surrounding with blocks  teachers houses. ,Borehole or tubewell,"TA M'Mbelwa, Mzimba, Malawi",8/6/2008
