name,description,type,depth,vulnerability,fid,lat,lon
Mzalagwe secondary school borehole ,Near Mzalagwe Health centre ,Borehole or tubewell,0,no risk,5,-11.6116464,33.5659081
Mbiriyawaka Shallow Well,Near Katope trees,Unprotected dug well,0,no risk,7,-11.7828257,33.5019448
Chaluwa water point ,Near  bluegum tree ,Piped into public tap / standpipe / basin,0,no risk,9,-10.9761126,33.7182222
Chigwere Tap 13,Near Baobab tree ,Piped into public tap / standpipe / basin,0,no risk,11,-11.0236744,33.8433463
Msiya Chirwa Borehole ,Near Jandalala -Emoneni Road ,Borehole or tubewell,0,no risk,13,-11.6131466,33.6331581
Domphi kumwenda borehole ,Near msangusangu trees ,Borehole or tubewell,0,no risk,17,-11.0599821,33.8002383
Nkhalamuntheta,,Piped into public tap / standpipe / basin,0,no risk,19,-10.7640361,34.0298160
Manson chinula water point ,Near Keisha tree ,Piped into public tap / standpipe / basin,0,no risk,22,-11.0250182,33.8557628
Makupula,,Piped into public tap / standpipe / basin,0,no risk,29,-10.9635907,33.6929032
Mwenekadzungu,,Piped into public tap / standpipe / basin,0,no risk,31,-10.7379542,34.0426748
Chikalamba,,Piped into public tap / standpipe / basin,0,no risk,35,-11.0154626,33.8492036
Cheyeka,,Piped into public tap / standpipe / basin,0,no risk,36,-10.9513796,33.7500178
Mjuma,,Piped into public tap / standpipe / basin,0,no risk,40,-10.9635907,33.7684987
Chatumbwa,,Piped into public tap / standpipe / basin,0,no risk,43,-11.0265499,33.8528353
Bongololo,,Piped into public tap / standpipe / basin,0,no risk,44,-10.9790590,33.7430537
Mebo Nyasulu pvt tap,At Mebo Nyasulu's compound,Piped into public tap / standpipe / basin,0,no risk,48,-10.7622564,34.2009954
Mutu FP School Borehole,Near Mangoe Tree,Borehole or tubewell,0,no risk,51,-11.7022212,33.4212882
Chatumbwa,,Piped into public tap / standpipe / basin,0,no risk,52,-11.0189932,33.8422670
Nyachima wp,Private tap,Piped into yard/plot,0,no risk,54,-10.9940467,33.7126821
GVH kayunguna tap,Near chitotho tree ,Piped into yard/plot,0,no risk,55,-10.9888018,33.7742211
Amosi munthali  water point ,Near mango tree ,Piped into public tap / standpipe / basin,0,no risk,56,-11.0084127,33.8448041
Chigwere,,Piped into public tap / standpipe / basin,0,no risk,57,-11.0234731,33.8411099
Mr Mzumala,,Borehole or tubewell,0,no risk,33760,-10.4210000,33.7820000
Mr Mzumala,,Borehole or tubewell,0,no risk,21313,-10.4210000,33.7820000
Mr Mzumala,,Borehole or tubewell,0,no risk,26668,-10.4210000,33.7820000
Mr Mzumala,,Borehole or tubewell,0,no risk,35830,-10.4210000,33.7820000
Doloba tap 11,Near rumphi river ,Piped into yard/plot,0,no risk,65,-11.0191225,33.8665812
Chivwenene,,Protected dug well,0,no risk,67,-10.9519335,34.0991724
Yalero,,Piped into public tap / standpipe / basin,0,no risk,70,-10.8264308,34.1002108
Bota Nyirongo  Borehole  1,Near bota nyirongo  village,Borehole or tubewell,0,no risk,71,-11.7210593,33.6952721
Winnie Mhango tap ,Along the way to kauka primary school ,Piped into yard/plot,0,no risk,74,-10.8568384,33.9842362
John Mwafongo dugwell,Near thorn tree,Unprotected dug well,0,no risk,75,-9.9517461,33.9214300
Mr Mzumala,,Borehole or tubewell,0,no risk,33760,-10.4210000,33.7820000
Mr Mzumala,,Borehole or tubewell,0,no risk,21313,-10.4210000,33.7820000
Mr Mzumala,,Borehole or tubewell,0,no risk,26668,-10.4210000,33.7820000
Mr Mzumala,,Borehole or tubewell,0,no risk,35830,-10.4210000,33.7820000
Mr Mzumala,,Borehole or tubewell,0,no risk,33760,-10.4210000,33.7820000
Mr Mzumala,,Borehole or tubewell,0,no risk,21313,-10.4210000,33.7820000
Mr Mzumala,,Borehole or tubewell,0,no risk,26668,-10.4210000,33.7820000
Mr Mzumala,,Borehole or tubewell,0,no risk,35830,-10.4210000,33.7820000
Lubinga,,Piped into public tap / standpipe / basin,0,no risk,85,-10.9889309,33.7604957
Chamahiya Chimaliro Water Point,,Borehole or tubewell,0,no risk,86,-11.2530568,33.8158637
Chatumbwa Tap ,Near future Hill ,Piped into public tap / standpipe / basin,0,no risk,87,-11.0189924,33.8415536
Chikalamba,,Piped into public tap / standpipe / basin,0,no risk,88,-11.0251727,33.8527258
Chatumbwa,,Piped into public tap / standpipe / basin,0,no risk,89,-11.0260238,33.8498135
Kafukule Primary school Borehole 3,Near Kafukule Primary school ,Borehole or tubewell,0,no risk,91,-11.4647399,33.6329599
Ngomiawo Moyo  1 borehole ,At the  junction to  visenthe ,Borehole or tubewell,0,no risk,94,-11.7137432,33.5464899
Mwale school borehole ,Near Mwale primary school ,Borehole or tubewell,0,no risk,95,-10.8709109,34.0561945
Yaulungu,,Piped into public tap / standpipe / basin,0,no risk,96,-10.8643345,33.9976791
Mbiriwizi primary School,"TA  Chikulamayembe, Rumphi. Near Mbiriwizi Primary School",Borehole or tubewell,0,no risk,97,-10.9854951,33.8227875
Kayiwale,,Piped into public tap / standpipe / basin,0,no risk,98,-11.0066214,33.7969990
Goodson mhango tap,Along the road from WUA office to TA mwalweni ,Piped into public tap / standpipe / basin,0,no risk,104,-10.7379166,34.0418579
Rodha gumbo water point ,Near mawelewele river ,Piped into public tap / standpipe / basin,0,no risk,107,-11.0124162,33.8456970
Chekha wp,Private tap,Piped into yard/plot,0,no risk,115,-10.9524050,33.6840817
Chamakozga WP,Private Tap,Piped into yard/plot,0,no risk,120,-10.9821368,33.7419357
Kanyankhunde school borehole 2,100 my from kanyankhunde primary school,Borehole or tubewell,0,no risk,123,-11.5379514,33.3651106
Chikhangawa wp,Private Tap,Piped into yard/plot,0,no risk,127,-10.9896835,33.7617176
Ziyaka Ngwira  borehole,Along Thale - Lukwelukwe road near Hon. Ngwira house,Borehole or tubewell,0,no risk,128,-11.6102768,33.3625528
Zgawa tap 1,Near mwachanda to kamphenda road,Piped into yard/plot,0,no risk,129,-10.9771868,33.6725907
Chatumbwa,,Piped into public tap / standpipe / basin,0,no risk,130,-11.0205757,33.8432468
Levi Chisi Village Water Point,Near Manyamula road,Borehole or tubewell,0,no risk,132,-11.9322473,33.5227243
Kasawambe,,Piped into public tap / standpipe / basin,0,no risk,133,-10.9764896,33.7448822
Chimwela borehole ,Near buwira last church after Buwira trading centre ,Borehole or tubewell,0,no risk,136,-10.9967786,33.8116817
Chatumbwa vh,Near tenthere school,Piped into public tap / standpipe / basin,0,no risk,137,-11.0211609,33.8417579
Robert Lungu tap,Near chikhuni to bondi road,Piped into public tap / standpipe / basin,0,no risk,139,-11.0148183,33.8525388
Chigwere,,Piped into public tap / standpipe / basin,0,no risk,140,-11.0214431,33.8342253
Andala Malinga ,Near ant hill ,Protected dug well,0,no risk,141,-12.0588775,33.3088345
Chakolagalu Jere Borehole ,Near Elangeni -Kapangamawe Road ,Borehole or tubewell,0,no risk,144,-11.4534894,33.6962698
Good Kawonga Tap ,NEAR KATANGAJA MAIZE MILL ,Piped into public tap / standpipe / basin,0,no risk,145,-11.0179092,33.8453554
Chakoma,,Piped into public tap / standpipe / basin,0,no risk,147,-10.9203540,33.7355160
Emmanuel Nkhoma Borehole ,Near Thitimila Stream ,Protected dug well,0,no risk,150,-11.5232717,33.6374271
Mwachikwezga,,Surface water,0,no risk,154,-10.7317470,34.0252058
Sosole Mhango,,Surface water,3.0006103515625,high risk,156,-10.7561682,34.2057519
Mwachirwa Tap 2,Near mango tree ,Piped into public tap / standpipe / basin,0,no risk,157,-11.0147225,33.8046312
Yaulungu,,Piped into public tap / standpipe / basin,0,no risk,158,-10.8636087,33.9966748
Kitchen WP,Private Tap,Piped into yard/plot,0,no risk,164,-10.9603247,33.6481666
Mwazulanga,,Protected dug well,0,no risk,165,-10.9983385,33.6543664
Obey WP,Private Tap,Piped into yard/plot,0,no risk,168,-10.9892683,33.7588969
JUWIRI VILLAGE TAP 2,Near the 2 mango trees,Piped into public tap / standpipe / basin,0,no risk,169,-10.9354508,33.9394917
Lwasho vokolani 01,Near lake malawi shores,Borehole or tubewell,0,no risk,171,-9.9911610,33.9506961
Jalira - mtawanda water point,Along chikwawa to kazuni,Borehole or tubewell,0,no risk,173,-11.0218135,33.7453609
Leah Mnthali tap ,Near Kesha tree ,Piped into yard/plot,0,no risk,174,-11.0165980,33.9427335
Kaboma saka  shallowwell,"Near anthill, alongside kachiwongowongo stream 1",Protected dug well,0,no risk,176,-12.2502247,33.7279504
Chanyeka Gondwe villge borehole ,Close to mango tree ,Borehole or tubewell,0,no risk,177,-11.1920615,33.5592338
Malata Mtonga borehole ,Near Community Of Christ church ,Borehole or tubewell,0,no risk,178,-11.8791501,33.3551054
Phonex secondary school tap,Near gwafa and mango trees,Piped into public tap / standpipe / basin,0,no risk,179,-9.9311289,33.9370565
Vitanda borehole,About 300 meters from the chief's compound,Borehole or tubewell,0,no risk,181,-10.9129420,34.0300574
Nchenachena epa 2,Near kasalamba mountain ,Piped into public tap / standpipe / basin,0,no risk,184,-10.7520183,34.0230290
Bongololo,,Piped into public tap / standpipe / basin,0,no risk,185,-10.9738901,33.7385008
Mwaziko borehole ,Along jalawe bunga road ,Borehole or tubewell,0,no risk,186,-10.7360416,34.1700295
,,,0,no risk,187,-10.1035944,33.9503390
Doloba tap 12,Near rumphi river ,Piped into yard/plot,0,no risk,190,-11.0173840,33.8665115
Chimayi,,Piped into public tap / standpipe / basin,0,no risk,194,-10.9342361,33.7390573
Jonas Borehole ,Near msangusangu tree ,Borehole or tubewell,0,no risk,198,-11.0130326,33.9653262
Chigezelo Chibaka borehole ,200m behind roman Catholic Church ,Borehole or tubewell,0,no risk,199,-11.1956536,33.8264538
Chaleka FP School borehole ,A water point at Chaleka School ,Borehole or tubewell,0,no risk,200,-11.3229287,33.8165310
Chilomba 2 waterpoint,Near Rukulu river,Protected dug well,0,no risk,209,-12.1921240,33.3492536
Tambala tap,Near  St Denis Road ,Piped into yard/plot,0,no risk,210,-11.0202862,33.8620124
R Chilembo tap,Near magawa to st dennis road,Piped into yard/plot,0,no risk,211,-11.0072243,33.8515145
Nickson Chizotera,The tap is within the village and it is private,,0,no risk,212,-10.9321393,33.7390375
Mshani tap,Near rumphi river ,Piped into yard/plot,0,no risk,213,-11.0164313,33.8711241
Mgabi shaba borehole ,Near ngundu River ,Borehole or tubewell,0,no risk,214,-12.2823780,33.5132033
Razalo water point,Near baobao tree,Piped into public tap / standpipe / basin,0,no risk,215,-11.1894687,33.9394232
Aubrey  mtumbuka  water point ,Near Keisha tree ,Piped into public tap / standpipe / basin,0,no risk,216,-11.0091884,33.8497796
SGH Chaparanyika,Closer to SGH Chaparanyika,,0,no risk,217,-10.9496653,33.7456650
Mgubani Mbeye Water Point,,Borehole or tubewell,0,no risk,227,-11.9116470,33.5258879
Uchindami borehole,Near katope tree,Protected dug well,0,no risk,245,-12.0615861,33.4188774
Chotha borehole,Near Chotha football ground,Borehole or tubewell,0,no risk,247,-11.8937075,33.5430567
Mgubani Shallowell,Near Mgubani village,Protected dug well,0,no risk,251,-12.1827246,33.3229671
Makanjira communal tap,Close to mlowe bridge ,Piped into public tap / standpipe / basin,0,no risk,256,-10.7586802,34.2012055
Kachenga area borehole ,Near Enyezini Trading Centre ,Borehole or tubewell,0,no risk,257,-11.4771767,33.8516404
Thomas Msukwa Tap ,Near Chisekese Tree ,Piped into public tap / standpipe / basin,0,no risk,258,-11.0194405,33.8428112
Mtalama,,Piped into public tap / standpipe / basin,0,no risk,264,-10.8452377,33.9923467
Sarah kaunda water point ,Near masuku tree ,Piped into public tap / standpipe / basin,0,no risk,268,-11.0267879,33.8519586
Mtanila,,Protected dug well,0,no risk,269,-11.0642187,33.6215538
Odiodi borehole,Near the road to euthini market,Borehole or tubewell,0,no risk,270,-11.4456686,33.4161792
DCT,,,0,no risk,273,-9.9363169,33.9276047
Lake,,,0,no risk,274,-9.9365604,33.9274318
Mwamuwiliri,,Piped into public tap / standpipe / basin,0,no risk,286,-10.9487839,33.9773815
Chikalamba,,Piped into public tap / standpipe / basin,0,no risk,287,-11.0253470,33.8552363
Chisinde,,Protected dug well,0,no risk,288,-10.9236889,33.6315817
Blantyre Tap,Near ruviri to chirambo road,Piped into yard/plot,0,no risk,289,-10.9641158,33.6654402
Chikalamba,,Piped into public tap / standpipe / basin,0,no risk,298,-11.0136274,33.8532610
Mgubani 2 bore hole,Near the houses,Borehole or tubewell,0,no risk,299,-11.5397289,33.3671857
Gogo Mlambika wp,Private Tap,Piped into yard/plot,0,no risk,304,-10.9740871,33.7426755
Kakila tap,Along the road from nkhomboli to lura,Piped into public tap / standpipe / basin,0,no risk,313,-10.7573654,34.0335692
Lubinga  water point  ,Near  musangusangu tree ,Piped into public tap / standpipe / basin,0,no risk,317,-10.9849179,33.7593831
Chikwetu 2 borehole,,Borehole or tubewell,0,no risk,334,-11.0497727,33.6994324
Chibagombe dug well,,Unprotected dug well,0,no risk,335,-11.0662924,33.7101078
 Kalinda makuni borehole,,Borehole or tubewell,0,no risk,336,-11.0748119,33.6953202
Muhungwa,,Protected dug well,0,no risk,338,-10.9838909,33.6189869
Chatumbwa,,Piped into public tap / standpipe / basin,0,no risk,339,-11.0269603,33.8489800
Kachipumpha mhone borehole 2,Near kalihoro mosque ,Borehole or tubewell,0,no risk,340,-11.3297417,33.9157867
Molly nyasulu tap,Near road to mzuzu,Piped into public tap / standpipe / basin,0,no risk,341,-11.0266627,33.8672776
Kasongwe primary school borehole,,Borehole or tubewell,0,no risk,343,-11.0636388,33.6826912
Mferp borehole,,Borehole or tubewell,0,no risk,344,-11.0841592,33.6975221
Katete - Kaulufu,,Piped into public tap / standpipe / basin,0,no risk,346,-10.7311990,34.0432180
Chilongozi,,Piped into public tap / standpipe / basin,0,no risk,347,-10.9783970,33.7451014
Madji yathika borehole,,Borehole or tubewell,0,no risk,366,-11.0834802,33.6741667
Chandiwila,,Borehole or tubewell,0,no risk,367,-11.0782155,33.6830368
Mzuni,,Piped into yard/plot,0,no risk,374,-11.2318385,33.9592869
Yiwele Mkandawire borehole 1,Near mango trees ,Borehole or tubewell,0,no risk,378,-11.1083301,33.7458412
Kamphere borehole,,Borehole or tubewell,0,no risk,379,-10.9173196,33.6482242
Chilamasinda borehole,,Borehole or tubewell,0,no risk,380,-10.9256124,33.6420821
Chiwuta shallow well,,Protected dug well,0,no risk,382,-10.9288484,33.6361854
Lonjera borehole,,Borehole or tubewell,0,no risk,383,-10.9029104,33.6576116
Chinkhokwe borehole,,Borehole or tubewell,0,no risk,384,-10.9176691,33.6577365
Jumbamu ndhlovu borehole,Near the houses,Borehole or tubewell,0,no risk,385,-11.5134038,33.3385949
Mkama primary school 1 borehole,,Borehole or tubewell,0,no risk,386,-10.9064446,33.7078666
Catherine chizala tap ,Near orange tree ,Piped into yard/plot,0,no risk,387,-10.9491739,33.7386851
,,,0,no risk,390,-9.9827640,33.8316816
Leonard  nyasulu  water point ,Near Keisha tree ,Piped into public tap / standpipe / basin,0,no risk,391,-11.0275518,33.8491962
Mughogho tap 4,Near mayembe river ,Piped into yard/plot,0,no risk,401,-11.0105844,33.8632463
,,Borehole or tubewell,0,no risk,402,-11.1843554,33.5658699
Chikalamba,,Piped into public tap / standpipe / basin,0,no risk,406,-11.0135008,33.8531323
,,,0.247589111328125,intermediate risk,408,-9.9347350,33.9313490
Violet gondwe  water point ,Near banana tree ,Piped into public tap / standpipe / basin,0,no risk,410,-11.0121100,33.8458829
Brigth luhanga tap ,Near mango tree ,Piped into yard/plot,0,no risk,411,-11.0211990,33.8482569
Pililani gondwe  water point ,Near  cassava tree ,Piped into public tap / standpipe / basin,0,no risk,418,-11.0250469,33.8450814
,,Borehole or tubewell,0,no risk,420,-12.0783781,33.4398479
Winess  ngambi  water point ,Near mango tree ,Piped into public tap / standpipe / basin,0,no risk,421,-11.0259973,33.8535068
Yaulungu,,Piped into public tap / standpipe / basin,0,no risk,425,-10.8629315,33.9969019
Mwang'Onga,,Piped into public tap / standpipe / basin,0,no risk,426,-10.9564736,33.9311013
Chigumba water point,Along chikwawa bolero road (jandang'ombe,Borehole or tubewell,0,no risk,428,-11.0000464,33.7639374
Lusuntha borehole,,Borehole or tubewell,0,no risk,429,-11.0682179,33.7205965
Paul banda tap,Near rumphi river,Piped into public tap / standpipe / basin,0,no risk,430,-11.0316500,33.8746756
Mbiriyawaka Moyo borehole,Near football ground,Borehole or tubewell,0,no risk,434,-11.7794805,33.5033896
Gindiloni shallow well,Near rukulu river,Protected dug well,0.7587890625,high risk,439,-12.2052163,33.3517163
Mwamlowe,,Piped into public tap / standpipe / basin,0,no risk,441,-10.7726879,34.2041386
Chenyentha,,Protected dug well,0,no risk,442,-10.8300418,34.0105809
Mwanza mtumbuka borehole,Near chilulu school,Borehole or tubewell,0,no risk,444,-10.9061072,33.9596595
Magwambani bolehole ,Near cenderera trees ,Borehole or tubewell,0,no risk,445,-11.7578404,33.4478989
Baphani  Kamanga  borehole ,Along  Eswazini road,Borehole or tubewell,0,no risk,446,-11.7149565,33.5909609
Chawanangwa kayila tap ,Near the road from Rumphi CCAP Church to chankhomi commuty day secondary school ,Piped into yard/plot,0,no risk,447,-11.0194593,33.8506248
Kamulawanga Kaira borehole ,Near katonthowolo river,Borehole or tubewell,0,no risk,449,-11.2362272,33.8257680
Kamunthambani Mtonga borehole ,25 metres from muchemani tree,Borehole or tubewell,0,no risk,450,-11.4331108,33.4914943
Machawane shallow well ,Near chimulu hills,Protected dug well,0,no risk,454,-10.9393979,34.0958103
Laston kaira waterpoint,Near bolero to hewe m24 road,Piped into yard/plot,0,no risk,458,-10.9812102,33.7401621
Kahami borehole ,Along themail road from mdimwa to zombe ,Borehole or tubewell,0,no risk,459,-10.7987621,34.0587144
Chivwanyuma primary school  tap,Along the road from chivwanyuma to nkhomboli ,Piped into public tap / standpipe / basin,0,no risk,460,-10.7841882,34.0297090
Manyung'unya borehole,,Borehole or tubewell,0,no risk,461,-10.9027128,33.7013674
Kayisuke Dug well ,Near Kamnyololo stream,Protected dug well,0,no risk,468,-11.8164987,33.7036357
Chaula tap,Near ruviri river,Piped into public tap / standpipe / basin,0,no risk,479,-10.9594951,33.6556339
Chikalamba,,Piped into public tap / standpipe / basin,0,no risk,504,-11.0263782,33.8541307
Msambala tap,Along kawaza to jumbi road,Piped into public tap / standpipe / basin,0,no risk,505,-10.9423073,33.7452402
Makupula,,Protected dug well,0,no risk,506,-10.9690431,33.6945909
Msongawumo tap,Along the road from nchenachena to nchenachena smallholder ,Piped into public tap / standpipe / basin,0,no risk,509,-10.7537765,34.0296282
Jando mghogho,Near kawaza to jumbi road,Piped into yard/plot,0,no risk,510,-10.9413960,33.7459989
Kettie Banda shallow well ,North of vitima shallow well,Protected dug well,0,no risk,511,-12.1666780,33.4312520
Kamatang'Ombe,,Piped into public tap / standpipe / basin,0,no risk,512,-10.9273102,33.9626584
Mwvere communal tap ,Close to a very large mango tree along mlowe mfulu road ,Piped into public tap / standpipe / basin,0,no risk,516,-10.7916565,34.2096031
Mpata,Mwenitete,Borehole or tubewell,0,no risk,12100,-9.9567133,33.8265700
Mpata,Mwenitete,Borehole or tubewell,0,no risk,21303,-9.9567133,33.8265700
Chipiku borehole,Near Embangweni Chipiku store,Borehole or tubewell,0,no risk,577,-12.1412302,33.4728541
Vwalako shallow well ,Near pakambwa area,Protected dug well,0,no risk,620,-10.8533028,34.0664483
Aunt Mwiza Lodge,Mwalimba,Borehole or tubewell,0,no risk,33480,-9.9368230,33.9261400
Aunt Mwiza Lodge,Mwalimba,Borehole or tubewell,0,no risk,5563,-9.9368230,33.9261400
Aunt Mwiza Lodge,Mwalimba,Borehole or tubewell,0,no risk,33334,-9.9368230,33.9261400
Aunt Mwiza Lodge,Mwalimba,Borehole or tubewell,0,no risk,33480,-9.9368230,33.9261400
Aunt Mwiza Lodge,Mwalimba,Borehole or tubewell,0,no risk,5563,-9.9368230,33.9261400
Aunt Mwiza Lodge,Mwalimba,Borehole or tubewell,0,no risk,33334,-9.9368230,33.9261400
Kacheche  water point ,Near Keisha tree ,Piped into public tap / standpipe / basin,0,no risk,648,-10.9705202,33.7424618
Kayange Borehole ,Near Mango tree ,Borehole or tubewell,0,no risk,655,-9.9593496,33.9112543
Mbale tap ,Near the trees ,Piped into yard/plot,0,no risk,661,-10.8562507,33.9950557
Ireen munthali tap,Near Bolero magestrate court ,Piped into yard/plot,0,no risk,681,-10.9743822,33.7481644
Chawezi Hlongo water point,Near mkhuru dam,Protected dug well,0,no risk,742,-12.1353960,33.4662874
Mnjiri Secondary school Monitoring well,,Borehole or tubewell,0,no risk,749,-11.8914229,33.5830262
Echulumbeni F.P. School Monitoring well,situated in Madede,Borehole or tubewell,0,no risk,757,-11.5363729,33.2945195
Chifwefwe 2 kaitchaye borehole,Near a big bluegum tree,Borehole or tubewell,0,no risk,758,-11.4664138,33.4798603
Solomoni Moyo community borehole ,Near kanyika river ,Borehole or tubewell,0,no risk,759,-11.7943861,33.6742084
Alfred  kamanga  water point ,Near Keisha tree ,Piped into public tap / standpipe / basin,0,no risk,761,-11.0228659,33.8455340
Matunkha Tap 2,Near Matunkha hill ,Piped into public tap / standpipe / basin,0,no risk,764,-11.0196336,33.8376527
Victor  tembo water point ,Near bluegum tree ,Piped into public tap / standpipe / basin,0,no risk,777,-11.0263225,33.8520052
Msekanawana tap,Near mango trees,Piped into public tap / standpipe / basin,0,no risk,779,-11.1734899,33.9507553
Kantcheni primary school borehole ,Close to kafukule  -Mkwangwali road,Borehole or tubewell,0,no risk,781,-11.4371873,33.5944313
Khongono 2,"TA Changata, Thyolo",Borehole or tubewell,0,no risk,782,-10.9855148,33.8227844
Zebediya Beza community  borehole ,Near kasito river ,Borehole or tubewell,0,no risk,783,-11.7230369,33.6889836
Vwalika tap,Near magawa to st dennis road,Piped into yard/plot,0,no risk,787,-11.0076517,33.8535290
Samson borehole ,Along Emsizin -Ekwenden road ,Borehole or tubewell,0,no risk,795,-11.4381257,33.8298777
Chimoyo,,Piped into public tap / standpipe / basin,0,no risk,796,-11.0065541,34.0729788
Gogo chirwa tap,Near RU 2 school,Piped into public tap / standpipe / basin,0,no risk,803,-11.0286680,33.8716886
Lura cdss water point 2,Near nyirenda 's compound ,Borehole or tubewell,0,no risk,808,-10.7280661,34.0464100
Mtungambewa borehole,Near a mango tree,Borehole or tubewell,0,no risk,810,-10.8162585,34.0136701
Mtete tap ,Near bluegum trees ,Piped into yard/plot,0,no risk,811,-10.9368236,33.9216464
Mary Mhone wp,Private tap,Piped into yard/plot,0,no risk,814,-10.9768453,33.7434756
Mdoyi,,Piped into public tap / standpipe / basin,0,no risk,815,-10.7892671,34.2071863
Thom sowoya tap,Near bondi road,Piped into yard/plot,0,no risk,828,-11.0131361,33.8518449
Zamukolani tap,Near mangoe tree,Piped into public tap / standpipe / basin,0,no risk,834,-11.0149558,33.8497137
Kaulambwe shallowwell ,Between anthills,Protected dug well,0,no risk,835,-12.2590594,33.6847291
Nkhundukundu Chimaliro waterpoint ,Near bluegum trees ,Piped into public tap / standpipe / basin,0,no risk,836,-11.2517337,33.7982617
Mwaphoka tap 2,Near magawa to st dennis road,Piped into yard/plot,0,no risk,837,-11.0068695,33.8517918
Kagowa Nyirenda borehole ,Near kagowa Nyirenda village ,Borehole or tubewell,0,no risk,838,-11.3056483,33.9330617
Mwawembe  tap,Near munga tree,Piped into public tap / standpipe / basin,0,no risk,82,-9.9228432,33.9457936
Stanry moyo tap,Near kapanthi tree ,Piped into yard/plot,0,no risk,840,-11.0148239,33.8443647
Mkhondweni water point,It is in the valley of joke river,Protected dug well,0,no risk,842,-12.2525438,33.4798842
Jacob munthali  water point ,Near  mango tree ,Piped into public tap / standpipe / basin,0,no risk,846,-11.0271461,33.8487615
Phoseka Jere Borehole 2,Near Chamavi River ,Borehole or tubewell,0,no risk,849,-11.4370224,33.6285613
Davie kayilast tap ,Near the road from Rumphi CCAP Church to chankhomi ,Piped into yard/plot,0,no risk,851,-11.0195070,33.8505809
Andrew Muyaba well ,Near Kamembe stream ,Protected dug well,0,no risk,853,-11.5863233,33.7078235
Kaonga tap,Along the road from nnchenachena to lura trading ,Piped into public tap / standpipe / basin,0,no risk,854,-10.7343011,34.0407346
Mdekezga shallow well 1,Near lupololo river,Protected dug well,0,no risk,856,-10.9685215,34.1088629
Brian Gondwe tap,Near mangoe tree,Piped into yard/plot,0,no risk,857,-10.9546785,33.7620077
Chimfyonyo 2 tap,Near m24 road,Piped into yard/plot,0,no risk,859,-10.9667580,33.6659880
Aunt thoko tap,Near Enukweni clinic,Piped into public tap / standpipe / basin,0,no risk,860,-11.1817518,33.8869201
,,Borehole or tubewell,0,no risk,861,-9.9435785,33.8721531
Bembe water point,"TA Chikulamayembe , Rumphi",Borehole or tubewell,0,no risk,863,-10.9740320,33.6711950
,,Borehole or tubewell,0,no risk,865,-11.1776607,33.6598727
Chivunguru water point,"TA.Mwahenga, Rumphi",Borehole or tubewell,0,no risk,866,-10.8791000,34.0225940
Mr. Mbizi well ,Near Muwale stream,Protected dug well,0,no risk,868,-11.4553051,33.9396182
Mafumu water point,"T.A Chikulamayembe , Rumphi",Borehole or tubewell,0,no risk,869,-11.0459790,33.6559900
Chilenga,,Piped into public tap / standpipe / basin,0,no risk,871,-10.7304335,34.0442375
Bowe Nkhonjera water point,T.A Chikulamayembe ,Borehole or tubewell,0,no risk,872,-11.0834760,33.6920070
Nkhalamuntheta,,Piped into public tap / standpipe / basin,0,no risk,874,-10.7472355,34.0229271
Kachenjere water point,"T.A Zolokere, Rumphi",Borehole or tubewell,0,no risk,875,-10.8523710,33.3723100
Takatika Lungu Water Point,,Borehole or tubewell,0,no risk,878,-11.5758300,33.5869400
Thunda communal tap,Close to mwachisoti tank ,Piped into public tap / standpipe / basin,0,no risk,880,-10.7833676,34.2035309
Malita WP,Private tap,Piped into yard/plot,0,no risk,884,-10.9458144,33.7675594
Cheyama 2,Private tap but worn out,Piped into yard/plot,0,no risk,886,-10.9340590,33.7369383
Kanyama Mkandawire borehole ,Near Kavuwo  river,Borehole or tubewell,0,no risk,889,-11.3519165,33.4229805
,,Borehole or tubewell,0,no risk,890,-11.8039790,33.3350539
Chigwere,,Piped into public tap / standpipe / basin,0,no risk,903,-11.0237395,33.8489592
Mlimo Primary School borehole ,Near Kamuzunguzeni Hill ,Borehole or tubewell,0,no risk,904,-11.5022167,33.7444644
John nyirendas tap ,Near papaw tree ,Piped into yard/plot,0,no risk,905,-10.9794133,33.7449077
Zanadi Banda Borehole ,Near  Kesha tree,Borehole or tubewell,0,no risk,907,-11.9032031,33.5988766
,,,0.3060302734375,intermediate risk,908,-9.9346070,33.9311170
KAPETA ABANDONED COMMUNAL TAP ,Near an Orange/Mango trees,Piped into public tap / standpipe / basin,0,no risk,909,-10.9358996,33.9329752
Aaron Chalatani Makwakwa Water Point,,Borehole or tubewell,0.52197265625,high risk,910,-11.1437246,33.6623786
Mercy mzumala water point ,Near masuku tree ,Piped into public tap / standpipe / basin,0,no risk,912,-11.0256664,33.8520037
Musa Nkosi Dug well ,Near Katope tree ,Protected dug well,0,no risk,914,-11.7939320,33.7628914
Kasasa  school water point,T.A Chikulamayembe Rumphi,Borehole or tubewell,0,no risk,920,-10.8553400,33.6577900
Bulex msimuko water point ,Near cassava tree ,Piped into public tap / standpipe / basin,0,no risk,924,-11.0085086,33.8455264
Samuel makwakwa 2 borehore ,Close to ezweleni road ,Borehole or tubewell,0,no risk,928,-11.2891114,33.6606917
Chatonda school,,Borehole or tubewell,0,no risk,930,-11.7750129,33.6040822
Patamo Kamanga,,Borehole or tubewell,0,no risk,931,-11.7739362,33.6000097
Chikota School,,Borehole or tubewell,0,no risk,932,-11.0904439,33.7088533
Zakeyo Ndobera,,Borehole or tubewell,0,no risk,933,-11.7637496,33.6105555
Matifeyo Mwanza,,Borehole or tubewell,0,no risk,934,-11.8563551,33.6166272
Zimema Nyirenda,,Borehole or tubewell,0,no risk,936,-11.7589829,33.7159858
Bolero CBCC  2 wp ,near cbcc house,Piped into yard/plot,0,no risk,937,-10.9733399,33.7399249
Josen Munthali,,Borehole or tubewell,0,no risk,938,-11.4964710,33.9144678
Halaundi Soko,,Borehole or tubewell,0,no risk,939,-11.4772373,33.8328665
Mtangatanga  forest,,Borehole or tubewell,0,no risk,940,-11.9193892,33.7422438
Bala Katazuka,,Borehole or tubewell,0,no risk,942,-11.5763128,33.7866876
Kawiya Kamaji,,Borehole or tubewell,0,no risk,943,-11.5309950,33.8735454
Vwalamanja,,Piped into public tap / standpipe / basin,0,no risk,944,-10.7687049,34.0576458
Mwakyero,Near Cassava farm ,Protected dug well,0,no risk,947,-9.9143195,33.8758224
Mwachanda,,Piped into public tap / standpipe / basin,0,no risk,949,-10.9879017,33.6757717
penjani Bongololo wp,Private Tap,Piped into yard/plot,0,no risk,957,-10.9718294,33.7399099
Mzambazi Community Day Secondary School borehole ,25 metres from Mzuzu road ,Borehole or tubewell,0,no risk,961,-11.4219749,33.4481194
Katulunga dung well 1,Along kamnyololo  stream ,Protected dug well,0,no risk,967,-11.8188355,33.7006403
Phwezi trading centre water tap ,Near Kajeghere area ,Piped into public tap / standpipe / basin,0,no risk,970,-10.8863695,34.0462937
Muwa,,Piped into public tap / standpipe / basin,0,no risk,971,-10.9557665,33.6826046
Msowoya wp,Private Tap,Piped into yard/plot,0,no risk,974,-10.9590669,33.6515055
Masoka Soko village borehole ,"Near Quabaniso Chibambo residence, along Ekwaiweni-Ekwendeni road ",Borehole or tubewell,0,no risk,975,-11.3975322,33.9004462
Chizotera dug well 1,Near champhyembanso river,Protected dug well,0,no risk,976,-10.9254422,34.0870276
Kawazamawe,,Piped into public tap / standpipe / basin,0,no risk,984,-10.9767232,33.7080607
Gabriel nyirenda water point ,Near bluegum tree ,Piped into public tap / standpipe / basin,0,no risk,987,-11.0281938,33.8482593
Mwayoba mwanganda waterpoint 1,Near chaminade forrest,Borehole or tubewell,0,no risk,995,-9.9527098,33.8822119
Mwafulirwa dug well,Near chiwembe rice scheme,Unprotected dug well,0,no risk,996,-9.9501366,33.9072220
Chimanga school borehole,Near the road to lura,Borehole or tubewell,0,no risk,999,-10.8050906,34.0211967
M'bekwa Shaba shallow well 1,Near kakoma fp school,Protected dug well,0,no risk,1000,-12.1640693,33.4894700
Gomeka tap 2,Near rumphi bridge ,Piped into yard/plot,0,no risk,1002,-11.0211821,33.8666154
Manyota Water Point,,Borehole or tubewell,0,no risk,1007,-11.8458980,33.4446228
Chimsebezo Dywel Tembo Water Point ,,Borehole or tubewell,0,no risk,1009,-12.1204030,33.3497160
Zakeyo Banda Water Point,,Borehole or tubewell,0,no risk,1010,-12.2465071,33.3442541
Jasi Banda Water Point,,Borehole or tubewell,0,no risk,1011,-12.2795739,33.4738808
Moses Chilenje Water Point,,Borehole or tubewell,0,no risk,1012,-12.0475805,33.3824856
Makazi School Water Point,,Borehole or tubewell,0,no risk,1013,-11.9455794,33.4039062
Zondo Water Point,,Borehole or tubewell,0,no risk,1014,-12.2830327,33.5018692
Kadzuwa Water Point,,Borehole or tubewell,0,no risk,1015,-11.8455638,33.5429749
Edakweni Zgatonga Water Point,,Borehole or tubewell,0,no risk,1018,-11.8872471,33.5457936
M'banga Nyirongo Water Point,,Borehole or tubewell,0,no risk,1019,-12.2272636,33.3537656
Chitemwano Nursery School Water Point,,Borehole or tubewell,0,no risk,1020,-11.8776495,33.5330578
Mathufeyo Ndlovu Water Point,,Borehole or tubewell,0,no risk,1021,-11.2804572,33.4516571
Fulani Lungu,"T.A Chindi, Mzimba",Borehole or tubewell,0,no risk,1022,-11.7577610,33.4454100
Mteuka Msimuko,"T.A Chindi, Mzimba",Borehole or tubewell,0,no risk,1023,-11.6285350,33.5089200
Paulosi Banda  ,TA Chindi Mzimba,Borehole or tubewell,0,no risk,1024,-11.6930510,33.5283150
Mgulika Tembo,"TA Chindi, Mzimba",Borehole or tubewell,0,no risk,1025,-11.6155540,33.5828220
Hora Ngulube,"TA Chindi, Mzimba",Borehole or tubewell,0,no risk,1026,-11.6273700,33.5794060
Kango,,Piped into public tap / standpipe / basin,0,no risk,1027,-10.8505154,33.9875862
Kacherera Soko,"T.A Chindi , Mzimba",Borehole or tubewell,0,no risk,1029,-11.6516410,33.6400880
Mabuko Hlongo,"T.A Chindi, Mzimba",Borehole or tubewell,0,no risk,1030,-11.5509550,33.5799920
Zombe Kasamballa,"T.A Chindi , Mzimba",Borehole or tubewell,0,no risk,1031,-11.6117390,33.5909410
Gobede Mtonga ,TA. Chindi Mzimba,Borehole or tubewell,0,no risk,1032,-11.4906310,33.4948430
Wahindi Ndlovu,"T.A Chindi, Mzimba",Borehole or tubewell,0,no risk,1033,-11.4848060,33.4948430
Wahindi Ndlovu,"T.A Chindi, Mzimba",Borehole or tubewell,0,no risk,1034,-11.4848060,33.4948430
Matola Honde,"T.A Chindi, Mzimba",Borehole or tubewell,0,no risk,1035,-11.5202260,33.4914850
Venge Nyirenda,"T.A Chindi, Mzimba",Borehole or tubewell,0,no risk,1036,-11.5969080,33.6252140
Lazaro Chuzu,"T.A Chindi, Mzimba",Borehole or tubewell,0,no risk,1037,-11.4341810,33.3275260
Mchikhula school,"T.A Chindi , Mzimba",Borehole or tubewell,0,no risk,1038,-11.5431810,33.3672510
Bongololo,,Piped into public tap / standpipe / basin,0,no risk,1039,-10.9772995,33.7395046
Chikalamba,,Piped into public tap / standpipe / basin,0,no risk,1041,-11.0257918,33.8535782
Jestina kumwenda  water point ,Near masuku tree ,Piped into public tap / standpipe / basin,0,no risk,1046,-11.0268763,33.8519133
Maria Mwandira tap,Near salawe hills,Piped into yard/plot,0,no risk,1047,-11.0084562,33.8544393
Chindchindi Dug well ,Near Katope tree ,Protected dug well,0,no risk,1048,-11.8518925,33.7848600
,,Borehole or tubewell,0,no risk,1049,-11.4221386,33.3244505
Elijah Kumwenda,"TA. Chindi,  Mzimba",Borehole or tubewell,0,no risk,1050,-11.7503400,33.3445610
Moses Maunda,T.A CHINDI MZIMBA ,Borehole or tubewell,0,no risk,1051,-11.7714980,33.3616500
Chkalamba Tap ,Near St Dennis School ,Piped into public tap / standpipe / basin,0,no risk,1057,-11.0139993,33.8532891
Aaron Banda water point ,Near muwale and muula trees,Borehole or tubewell,0,no risk,1060,-12.2023401,33.6495986
Ntchowo fp school borehole 2,Near playground,Borehole or tubewell,0,no risk,1061,-9.8524294,33.8868329
Phillip Gondwe tap ,Near Mango tree ,Piped into public tap / standpipe / basin,0,no risk,1062,-11.0192959,33.8439124
Chiwapasi  water point 2,Near  masuku tree ,Piped into public tap / standpipe / basin,0,no risk,1065,-10.9793993,33.7499864
Mahowe borehole,,Borehole or tubewell,0,no risk,1066,-11.0931226,33.7096898
Vulayata,,Piped into public tap / standpipe / basin,0,no risk,1069,-10.7871167,34.0270197
Chauluka tap,Near  rumphi river ,Piped into yard/plot,0,no risk,1070,-11.0227760,33.8629600
Mwandwanga BH,Near Fago Chanel ,Borehole or tubewell,0,no risk,1071,-9.9372060,33.9250163
Robert Tembo  water point,"T.A Chindi, Mzimba",Borehole or tubewell,0,no risk,1072,-11.4130340,33.4280590
Gowoka Mkandawire water point,"T.A Chindi, Mzimba",Borehole or tubewell,0,no risk,1073,-11.4357230,33.4097680
Mapeza borehole,Near the chief's compound,Borehole or tubewell,0,no risk,1074,-10.9060230,34.0282729
Binduwindu water point,"T.A Chindi , Mzimba",Borehole or tubewell,0,no risk,1075,-11.4707320,33.4022730
James Tupa ,"T.A Chindi, Mzimba",Borehole or tubewell,0,no risk,1076,-11.7497910,33.4529110
Elijah Kumwenda,"TA. Chindi,  Mzimba",Borehole or tubewell,0,no risk,1077,-11.7503400,33.3445610
Matomola Chadewa,T.A Chindi  Mzimba,Borehole or tubewell,0,no risk,1078,-11.5274350,33.4023530
Moses Maunda,T.A CHINDI MZIMBA ,Borehole or tubewell,0,no risk,1079,-11.7714980,33.3616500
Msinawan Mwale ,"T.A Chindi, Mzimba",Borehole or tubewell,0,no risk,1080,-11.7583980,33.4540260
Msikawanthu B.,"T.A Chindi, Mzimba",Borehole or tubewell,0,no risk,1081,-11.5148460,33.5839520
Boli shallow well,Near mteleka forest reserve,Protected dug well,0,no risk,1082,-10.9994971,34.1118630
Chikalamba,,Piped into public tap / standpipe / basin,0,no risk,1086,-11.0135577,33.8534363
Kachisinga Village Tap,Near Village Headman Kachisinga,Piped into public tap / standpipe / basin,0,no risk,1087,-10.9841006,33.9194966
Mjuma,,Piped into public tap / standpipe / basin,0,no risk,1093,-10.9474786,33.7653228
Kafoteka Mkandawire 1,St Francis secondary School ,Borehole or tubewell,0,no risk,1102,-11.9218741,33.5891427
Sabola mkandawire village borehore ,Close to zuwa river ,Borehole or tubewell,0,no risk,1103,-11.2296176,33.7111102
Mkhalira village tap,Near tembo grocery,Piped into public tap / standpipe / basin,0,no risk,1107,-10.8367838,34.0110527
Bongololo,,Piped into public tap / standpipe / basin,0,no risk,1109,-10.9743029,33.7380906
Everdemaya tap1,Near m24 road,Piped into public tap / standpipe / basin,0,no risk,1111,-10.9617346,33.6491341
Kanthukamo/Nkhunga Water Point,,Borehole or tubewell,0,no risk,1112,-11.1079762,33.8334685
Mwenempiki waterpoint,Along malimbalimba kasowa road,Protected dug well,0,no risk,1113,-9.9242792,33.8510498
Mtakwa,,Borehole or tubewell,0,no risk,1116,-11.0300433,33.5606890
Mathew  munthali  water ,Near Keisha tree ,Piped into public tap / standpipe / basin,0,no risk,1117,-11.0246330,33.8435595
Mbocho Malindi Borehole 2,Near Mango Trees,Borehole or tubewell,0,no risk,1132,-11.9881434,33.5279549
Joseph Gondwe WP,Private,Piped into yard/plot,0,no risk,1133,-10.9465181,33.7482942
Malongo tap 3,Near rumphi river ,Piped into yard/plot,0,no risk,1135,-11.0242176,33.8663568
Mwangolela waterpoint,Near mango tree,Borehole or tubewell,0,no risk,1136,-9.9264488,33.7809309
Chilongozi,,Piped into public tap / standpipe / basin,0,no risk,1138,-10.9583126,33.7447247
Mr. Nyirongo,Ekaiweni,Borehole or tubewell,0,no risk,1139,-11.4019533,33.9332283
Joel Shaba borehole 1,Near palm tree,Borehole or tubewell,0,no risk,1143,-11.8732377,33.5520259
Chamala water point,"T.A Chisovya, Rumphi",Borehole or tubewell,0,no risk,1146,-10.7358400,34.1719700
Kavyeyo F.P. School,,Borehole or tubewell,0,no risk,1151,-12.1325322,33.4541174
Yonamo Moyo,,Borehole or tubewell,0,no risk,1153,-12.2009823,33.4464198
Kabinga Banda,,Borehole or tubewell,0,no risk,1155,-12.2212421,33.3694657
"Joka F.P, School",,Borehole or tubewell,0,no risk,1156,-12.2632053,33.4638199
Thaza Chirwa,,Borehole or tubewell,0,no risk,1157,-12.2590496,33.4720419
Rabani Chirwa,,Borehole or tubewell,0,no risk,1158,-12.1372583,33.3780820
Phillimon Ngulube,,Borehole or tubewell,0,no risk,1159,-12.1898557,33.4487268
Chibwana Moyo,,Borehole or tubewell,0,no risk,1160,-12.1849055,33.4340385
Nkhunga shallow well 2,Near Nkhonjera trading centre ,Protected dug well,0,no risk,1163,-10.9096789,34.1011169
Kanyunya,,Piped into public tap / standpipe / basin,0,no risk,1165,-10.9980846,33.7680367
Boston Mkanda tap,Near st dennis to chikhuni road,Piped into yard/plot,0,no risk,1166,-11.0137703,33.8535273
Ngwenyama ngwira waterpoint2,Near bluegum trees,Piped into yard/plot,0,no risk,1167,-10.9744693,33.7453560
Sikwese tap2,Near our future road ,Piped into yard/plot,0,no risk,1168,-11.0116625,33.8579178
Chilumbwa luanga borehole,,Borehole or tubewell,0,no risk,1172,-11.0977783,33.6900798
Mpowola Banda  Borehole ,East of kandaka cbcc 20m near mtuzuzu Primary school blocks. ,Borehole or tubewell,0,no risk,1174,-12.2348708,33.3600001
BAGHAYA VILLAGE TAP 3,Near Nsangu Trees ,Piped into public tap / standpipe / basin,0,no risk,1176,-11.0063677,33.9210526
Mphompha cdss water tap 3,Neear mphompha cdss blocks ,Piped into public tap / standpipe / basin,0,no risk,1178,-10.9973174,34.0757022
Mseteka shallowell,Along rukulu river,Protected dug well,0,no risk,1179,-12.0884096,33.3878539
Chikwawa primary school water point,At chikwawa primary school,Borehole or tubewell,0,no risk,1180,-11.0070244,33.7727922
Mukwezgalamba wp,Private Tap,Piped into yard/plot,0,no risk,1182,-10.9752016,33.7495492
Ndhlovi  wp,Private tap,Piped into yard/plot,0,no risk,1185,-10.9818437,33.7417906
Levi Borehole ,Near Mkhaya tree ,Borehole or tubewell,0,no risk,1186,-11.9774694,33.7270590
Nthonyi villageborehole,Near mere trees ,Borehole or tubewell,0,no risk,1189,-11.0279845,33.8069541
Kandapatali Gondwe tap ,Near Mango tree ,Piped into public tap / standpipe / basin,0,no risk,1199,-10.9719227,33.7456265
Simbeye Tap ,Near Orange tree ,Piped into public tap / standpipe / basin,0,no risk,1200,-11.0195172,33.8410002
Menard Nungu well,Near Malivenje village cemetery ,Protected dug well,0,no risk,1202,-11.4509473,33.9380213
Chikangawa Maternity Unit  communal tap water ,Near Chiwale tree ,Piped into yard/plot,0,no risk,1205,-11.8505605,33.7997455
Perekamoyo Banda water Point,,Borehole or tubewell,0,no risk,1206,-12.2861787,33.4392615
Chakanda village tap,Near mdimwa school,Piped into public tap / standpipe / basin,0,no risk,1208,-10.7946537,34.0521971
Chikwa Theu 1 Dug well ,Near Quava tree ,Protected dug well,0,no risk,1210,-12.0202451,33.7114791
Baula,,Piped into public tap / standpipe / basin,0,no risk,1212,-11.0235567,33.8516648
Ndomomo primary school borehole,Near ndomomo primary school,Borehole or tubewell,0,no risk,1215,-10.0716924,33.9683792
Ngozi,,Borehole or tubewell,0,no risk,1218,-10.8253567,34.0160029
Victor munthali tap,Near m24 road,Piped into yard/plot,0,no risk,1220,-10.9578142,33.6511513
Zatuba Zimba Village water point,100metres to the south of zatuba Zimba Village ,Borehole or tubewell,0,no risk,1222,-12.2493765,33.4776257
Chipeta tap 3,Near mwanja maize mill ,Piped into yard/plot,0,no risk,1227,-11.0134730,33.8682159
Shadreck Makwakwa village borehole ,Near mango tree ,Borehole or tubewell,0,no risk,1228,-11.2606272,33.6648558
Mapande Nkhwazi,,Piped into public tap / standpipe / basin,0,no risk,1229,-10.7616320,34.2034017
Dannil ngwira  water point ,Near sigaton  tree ,Piped into public tap / standpipe / basin,0,no risk,1232,-11.0258260,33.8534966
Police wp,Private tap,Piped into yard/plot,0,no risk,1234,-10.9836471,33.7391969
Steven  gondwe  water point ,Near electric  pole ,Piped into public tap / standpipe / basin,0,no risk,1235,-11.0252256,33.8452576
Vwezemu borehole ,,Borehole or tubewell,0,no risk,1238,-10.9076924,33.6530937
Bwati,,Piped into public tap / standpipe / basin,0,no risk,1239,-10.9715056,33.7648361
Bakewell Chiona borehole ,Opposite thorn tree and Masoko CBC,Borehole or tubewell,0,no risk,1241,-9.9147334,33.8979921
ZinyathI soko borehole,Near the grave yard,Borehole or tubewell,0,no risk,1247,-11.4949251,33.4771306
Chasisi JP School Borehole,At Chasisi JP School Borehole,Borehole or tubewell,0,no risk,1248,-11.7341133,33.4882610
Kaulanda borehole ,Near chitewe hill ,Borehole or tubewell,0,no risk,1253,-11.4585339,33.7947196
Mwankenja 1,,Unprotected spring,0,no risk,1254,-9.9458675,33.7763228
Mwankenja 2,,Unprotected spring,1.4022216796875,high risk,1255,-9.9467548,33.7759235
M. Gondwe tap,Near mangoe tree,Piped into yard/plot,0,no risk,1256,-11.0148537,33.8498411
Vungu,,Unprotected spring,0,no risk,1258,-9.9533947,33.7751455
George Jere borehole ,Near katula hills ,Borehole or tubewell,0,no risk,1259,-11.2255917,33.8767283
Mihla Nkosi Borehole ,Near Majiga -Elangeni Trading Centre Road ,Borehole or tubewell,0,no risk,1260,-11.4330431,33.7431913
Manyamula health center water point ,T.A Mbelwa Mzimba,Borehole or tubewell,0,no risk,1264,-11.9596191,33.4573768
Kwenerera,Kachasu,Borehole or tubewell,0,no risk,1267,-11.3753288,33.9177492
,,Borehole or tubewell,0,no risk,1270,-11.3453646,33.4197383
,,Borehole or tubewell,0,no risk,1273,-12.1382321,33.5610685
Mr mkandawire  water point ,Near mango tree ,Piped into public tap / standpipe / basin,0,no risk,1274,-11.0128893,33.8462183
Lozwati pvt Secondary school water point,"T.A Mtwalo, Mzimba",Borehole or tubewell,0,no risk,1277,-11.5437810,33.6371560
Chidiuka Thomasi Timeyo water point,"T,A Mtwalo, Mzimba",Borehole or tubewell,0,no risk,1280,-11.4432150,33.6232520
Edgar Nyirenda protected dug well ,Near cendrea tree ,Protected dug well,0,no risk,1282,-11.9436712,33.4678965
FayI Chiumia Tap ,Near Bluegum Trees,Piped into public tap / standpipe / basin,0,no risk,1283,-11.0210152,33.8402044
Mkandawire waterpoint,Near mango trees,Protected dug well,0,no risk,1284,-12.1999386,33.3585545
Nyayambingi Temple communial tap Water ,Neat M1 road ,Piped into public tap / standpipe / basin,0,no risk,1285,-12.0106863,33.6574685
Sahani Zgambo water point,"T.A Mtwalo , Mzimba",Borehole or tubewell,0,no risk,1286,-11.3977390,33.6750680
Mtwalo 2 water point,"T.A Mwalo, Mzimba",Borehole or tubewell,0,no risk,1288,-11.3880840,33.7267200
Safari Masango water point,"T.A Mtwalo, Mzimba",Borehole or tubewell,0,no risk,1289,-11.3420130,33.7069370
Zebediya Kaunda water point,"T.A Mtwalo, Mzimba",Borehole or tubewell,0,no risk,1290,-11.5185580,33.6739420
,,Borehole or tubewell,0,no risk,1291,-9.8914492,33.8623658
Mathyaka Zgambo,"T.A Mtwalo, Mzimba",Borehole or tubewell,0,no risk,1292,-11.3974560,33.6643520
Kajani Mumba water point,"T.A Mtwalo, Mzimba",Borehole or tubewell,0,no risk,1293,-11.3830810,33.8647870
Doroba School,T.A Mtwalo Mzimba,Borehole or tubewell,0,no risk,1296,-11.3603870,33.9847130
Chimaliro Julius Kapangamawe water point,"T.A Mtwalo, Mzimba",Borehole or tubewell,0,no risk,1297,-11.3293320,33.9802540
Loveness Gondwe water point,T.A Mtwalo Mzimba,Borehole or tubewell,0,no risk,1298,-11.5143400,33.6908960
Ndamila Chione water point,"T.A Mtwalo , Mtwalo",Borehole or tubewell,0,no risk,1299,-11.2623770,33.9305030
Mpenu  clinic water point ,"T.A Mtwalo , Mzimba",Borehole or tubewell,0,no risk,1301,-11.4523000,33.7227030
Muyanga Soko water point,"T.A Mtwalo, Mzimba ",Borehole or tubewell,0,no risk,1303,-11.2699640,33.7264490
Timeyo Mkandawire Borehole ,Near Kanyawayi -Emoneni Road ,Borehole or tubewell,0,no risk,1308,-11.6096482,33.6600709
Chimgonda Phiri Dug well ,Near Mlewezi tree ,Protected dug well,0,no risk,1309,-12.0311296,33.7266449
Bongololo water point  1,Near Keisha tree ,Piped into public tap / standpipe / basin,0,no risk,1310,-10.9733647,33.7399213
Kayamba tap,Near mhuju cdss,Piped into public tap / standpipe / basin,0,no risk,1311,-10.8757081,33.9919246
Cheghama Kafulufulu Borehole 2,Near Kafulufulu River ,Borehole or tubewell,0,no risk,1313,-10.0540539,33.8669784
Yamlomo tap 1,Near banana tree ,Piped into yard/plot,0,no risk,1317,-10.9512957,33.7476392
Mwachikweza 2 tap,Near mwachikweza mountain ,Piped into public tap / standpipe / basin,0,no risk,1320,-10.7275436,34.0220591
Machecheta 2 wp,Private Tap,Piped into yard/plot,0,no risk,1321,-10.9825467,33.7421265
Matupi tap 7,Near jumbI road ,Piped into yard/plot,0,no risk,1322,-10.8915324,33.7571046
Bongololo  water point ,Near mango tree ,Piped into public tap / standpipe / basin,0,no risk,1324,-10.9712621,33.7410856
Lunjika Mission health centre tap ,Near Lunjika Mission graveyard ,Piped into public tap / standpipe / basin,0,no risk,1328,-11.7144973,33.6855295
Masanika,,Borehole or tubewell,0,no risk,1331,-11.0067763,33.7729872
,,Borehole or tubewell,0,no risk,1332,-11.2605909,33.5270083
Embangweni Mission Hospital Residential Tap 2,Near Embangweni Mission Hospital ,Piped into public tap / standpipe / basin,0,no risk,1335,-12.1335256,33.4766904
Gladson Kanyoloka,Closer to Gladson residence,,0,no risk,1336,-10.9281465,33.7403998
Henry  kumwenda  water point ,Near Keisha tree ,Piped into public tap / standpipe / basin,0,no risk,1342,-11.0237413,33.8453900
Nkhoma Shallowell,Near Rukulu river,Protected dug well,0,no risk,1344,-12.1769499,33.3488131
Munyongani,,Piped into public tap / standpipe / basin,0,no risk,1345,-10.9299262,33.9244367
Hope chisale water point ,Near coffee  tree,Piped into public tap / standpipe / basin,0,no risk,1349,-11.0266678,33.8540273
Mufwakujembe dug well 1,Alongside Kavulabatchi river bank,Protected dug well,0,no risk,1350,-10.9139777,34.0873016
Mhangoo wp,Private tap,Piped into public tap / standpipe / basin,0,no risk,1351,-10.9416990,33.6943357
Kapiri  water point ,Near  mukalahanga  tree ,Piped into public tap / standpipe / basin,0,no risk,1353,-10.9639001,33.6982770
Kachiranthowa borehole ,Along the road to Chivungulu ,Borehole or tubewell,0,no risk,1355,-10.8463966,34.0282840
SAMSON NYIRONGO's TAP,Near Guavas and Mango trees ,Piped into yard/plot,0,no risk,1356,-10.9366232,33.9182756
Mughogho tap,Near Mkama trees,Piped into yard/plot,0,no risk,1358,-10.9713030,33.6852337
Chilongozgi waterpoint,Near mangoe tree,Piped into public tap / standpipe / basin,0,no risk,1359,-10.9746472,33.7457708
Melele borehole 2,Near seamens electicity tower,Borehole or tubewell,0,no risk,1360,-10.0169915,33.9367437
Thoza trading centre borehole ,Near Thoza trading centre,Borehole or tubewell,0,no risk,1361,-12.0959343,33.5356098
Kauta village tap,Near a mango tree,Piped into public tap / standpipe / basin,0,no risk,1363,-10.9434901,33.9469159
Chatumbwa,,Piped into public tap / standpipe / basin,0,no risk,1368,-11.0212189,33.8404294
Chatumbwa,,Piped into public tap / standpipe / basin,0,no risk,1371,-11.0208938,33.8435335
Mlongoti,,Piped into public tap / standpipe / basin,0,no risk,1373,-11.0125603,33.8636778
Nehemia WP,Private tap,Piped into yard/plot,0,no risk,1384,-10.9750703,33.7762377
,,Borehole or tubewell,0,no risk,1386,-11.2105364,33.5753005
Kachinda Kumwenda Village Protected Shallow Well,Near Kathunguwele River,Protected dug well,0,no risk,1388,-11.7312370,33.4157544
Luhanga tap,Near St Denis ground ,Piped into yard/plot,0,no risk,1390,-11.0125569,33.8553822
Chilumbalwanja,,Protected dug well,0,no risk,1391,-11.0667388,33.6794453
Chisusu mbale tap ,Near mango tree ,Piped into yard/plot,0,no risk,1393,-11.0187332,33.8467668
Muthuzi,,Protected dug well,0,no risk,1395,-10.9928781,33.7637667
Chimoyo,,Borehole or tubewell,0,no risk,1396,-11.0078375,34.0762832
Chikwama borehole ,Near Seventhday Church ,Borehole or tubewell,0,no risk,1397,-11.0651833,33.9983206
Mwanja borehole,Near Fort hill CBCC,Borehole or tubewell,0,no risk,1399,-9.9733605,33.8465939
Sain Hara borehole,Near mharaunda  katondo road,Borehole or tubewell,0,no risk,1403,-12.0623825,33.4538733
Zabron Ngwira protected dug well ,Near zubachulu stream ,Protected dug well,0,no risk,1415,-11.8839456,33.4592319
Yaulungu,,Piped into public tap / standpipe / basin,0,no risk,1421,-10.8674441,33.9914667
Thambazali shallow well,Near banana plantation,Protected dug well,0,no risk,1425,-10.9383669,34.0817023
Mzumara maize mill water tap,Near magamo warehouse ,Piped into public tap / standpipe / basin,0,no risk,1426,-10.9998374,34.0773216
Vwezemu Kapira Tap ,Near Kesha trees ,Piped into public tap / standpipe / basin,0,no risk,1427,-11.0171772,33.8464289
Lunguluka,,Borehole or tubewell,0,no risk,1428,-10.9608038,34.0822094
Banda borehole ,Near the mango tree,Borehole or tubewell,0,no risk,1430,-9.9326770,33.9372079
Chiling'Oma,,Borehole or tubewell,0,no risk,1432,-10.8652863,34.0204992
Mung'Anya,,Borehole or tubewell,0,no risk,1436,-10.9810772,33.7864643
Dofu WP,Private tap,Piped into yard/plot,0,no risk,1439,-10.9294055,33.7680732
Jalira Chione borehole ,Near Luhomero hills ,Borehole or tubewell,0,no risk,1440,-11.2679855,33.9320066
Chikondawanga Lusale community shallow well 2,Near kadidiya river ,Protected dug well,0,no risk,1443,-11.7473622,33.7348819
,,,0,no risk,1444,-9.9327720,33.9371490
Mpuma Lungu borehore ,Close to mayula road ,Borehole or tubewell,0,no risk,1447,-11.3546312,33.6275238
Mwiza Nyirongo tap,Near gmalina trees ,Piped into public tap / standpipe / basin,0,no risk,1450,-11.0172829,33.8472560
Patson WP,Private Tap,Piped into yard/plot,0,no risk,1456,-10.9581870,33.6470230
NyachisambI Swallow Well ,Near Mango tree ,Protected dug well,0,no risk,1458,-9.8758308,33.9097132
Kafula mchenga shallow well ,Near Uzumara trading centre ,Protected dug well,0,no risk,1460,-10.9032742,34.0991315
Selewa,,Piped into public tap / standpipe / basin,0,no risk,1461,-10.7971407,34.2104278
Water Banda tap ,Near mango tree oposite with farmers world ,Piped into yard/plot,0,no risk,1463,-10.9783476,33.7450602
St. Pauls Primary Borehole,In front of St. Paul's Primary,Borehole or tubewell,0,no risk,1464,-11.8908952,33.6057046
,,Borehole or tubewell,0,no risk,1465,-9.8708718,33.8981442
Kawulira tap,Near mwanja maize mill ,Piped into yard/plot,0,no risk,1466,-11.0139838,33.8670265
Zebediya Zimba 2 Dug well ,Near pine tree ,Protected dug well,0,no risk,1470,-11.8600477,33.7716632
,,Borehole or tubewell,0,no risk,1472,-12.0992520,33.4266678
Lala shallow well ,Near lusu lusulumphara area,Protected dug well,0,no risk,1474,-10.9352370,34.0916062
Tembo tap ,Near njerenjere maize mill ,Piped into yard/plot,0,no risk,1475,-11.0126840,33.8572966
Chigezero Chibaka waterpoint 2,Near mango trees ,Borehole or tubewell,0,no risk,1478,-11.1956107,33.8265418
,,Borehole or tubewell,0,no risk,1480,-11.7661103,33.4882277
Chinoko ngulube borehole,Neare msangu sangu trees,Borehole or tubewell,0,no risk,1481,-11.5159811,33.3370229
Mzembe water tap,At Chipya area ,Piped into public tap / standpipe / basin,0,no risk,1484,-10.8041831,34.1139868
Mercy Chavula Tap ,Near Baula Stores ,Piped into public tap / standpipe / basin,0,no risk,1489,-11.0177604,33.8464581
Lunjika Mission Teacher House 2,Near Lunjika Mission health centre ,Piped into yard/plot,0,no risk,1492,-11.7147156,33.6852191
Kajawa village borehole,Near Enukweni school,Borehole or tubewell,0,no risk,1494,-11.1718782,33.8833723
Phingama,,Piped into public tap / standpipe / basin,0,no risk,1497,-11.0087837,33.8588819
M'jutchwa dug well 1,At Kavulabatchi river bank,Protected dug well,0,no risk,1502,-10.9137530,34.0925470
Cheyeka,,Borehole or tubewell,0,no risk,1503,-10.9513998,33.7464270
Joyce Gondwe tap ,Near bluegam tree ,Piped into yard/plot,0,no risk,1504,-10.9753299,33.7505108
Samson Sibande borehole 1,Near Eswazini  post agency ,Borehole or tubewell,0,no risk,1505,-11.7293946,33.6576693
Lundu primary school tap,At  school ,Piped into public tap / standpipe / basin,0,no risk,1508,-10.9248412,33.7390466
Mathwes  nyirenda  water point ,Near  Keisha tree ,Piped into public tap / standpipe / basin,0,no risk,1519,-11.0256632,33.8539235
Mwikiyama tap,Near salawe hills,Piped into yard/plot,0,no risk,1520,-11.0056762,33.8532720
Ndagha Kyala wp,Private Tap,Piped into yard/plot,0,no risk,1521,-10.9766593,33.7438118
Munthyenkhu  water point ,Near mango tree ,Piped into public tap / standpipe / basin,0,no risk,1522,-10.9657160,33.6743317
Milala School Tap 1,Near Kachere tree,Piped into public tap / standpipe / basin,0,no risk,1523,-11.9291962,33.5311159
James mnyenyembe community shallow well ,Near ngali hill ,Protected dug well,0,no risk,1526,-11.7389210,33.7348401
Mwanthunga,,Piped into public tap / standpipe / basin,0,no risk,1529,-10.7380421,34.2037364
James Lupeska Dug well ,Near Mdima tree ,Protected dug well,0,no risk,1531,-11.8904628,33.7568319
Luhono water point,"T.A Chikulamayembe , Rumphi",Borehole or tubewell,0,no risk,1533,-11.0037300,33.5677900
Mbale tap,Near rumphi river ,Piped into yard/plot,0,no risk,1535,-11.0134367,33.8687018
Machilika Chirwa Village borehole ,Near Kafulufulu river ,Borehole or tubewell,0,no risk,1536,-11.5151179,33.7853191
Mbulakusamba,,Surface water,0,no risk,1538,-10.7600626,34.0705829
Bondera Nyirenda Dug well ,Near Chiwale tree  ,Protected dug well,0,no risk,1544,-11.8041019,33.7600807
Khunga,Khunga,Borehole or tubewell,0,no risk,21276,-12.2713966,33.4378166
Khunga,Khunga,Borehole or tubewell,0,no risk,4549,-12.2713966,33.4378166
Khunga,Khunga,Borehole or tubewell,0,no risk,32434,-12.2713966,33.4378166
Khunga,Khunga,Borehole or tubewell,0,no risk,33548,-12.2713966,33.4378166
GVH Chatumbwa 6,Near Rukulu pvt school,Piped into public tap / standpipe / basin,0,no risk,1549,-11.0211534,33.8417483
Khunga,Khunga,Borehole or tubewell,0,no risk,21276,-12.2713966,33.4378166
Khunga,Khunga,Borehole or tubewell,0,no risk,4549,-12.2713966,33.4378166
Khunga,Khunga,Borehole or tubewell,0,no risk,32434,-12.2713966,33.4378166
Khunga,Khunga,Borehole or tubewell,0,no risk,33548,-12.2713966,33.4378166
Khunga,Khunga,Borehole or tubewell,0,no risk,21276,-12.2713966,33.4378166
Khunga,Khunga,Borehole or tubewell,0,no risk,4549,-12.2713966,33.4378166
Khunga,Khunga,Borehole or tubewell,0,no risk,32434,-12.2713966,33.4378166
Khunga,Khunga,Borehole or tubewell,0,no risk,33548,-12.2713966,33.4378166
Cheyeka tap,Near ndayakiyala maize mill ,Piped into yard/plot,0,no risk,1576,-10.9496441,33.7470869
,,Borehole or tubewell,0,no risk,1577,-11.4816223,33.6518874
Alfred  Chirwa protected well,Along rukulu river ,Protected dug well,0.53125,high risk,1582,-12.0213768,33.3292330
Kavalo Nyirental borehole,25 metres from Orange tree,Borehole or tubewell,0,no risk,1583,-11.4552492,33.4685110
Yolamu Nthala,TA. Chindi Mzimba,Borehole or tubewell,0,no risk,1584,-11.7908010,33.4415089
Sokopo Chinula Borehole 3,Near Luvwere -Sokopo Trading Road ,Borehole or tubewell,0,no risk,1585,-11.3876012,33.6561495
,,Borehole or tubewell,0,no risk,1586,-12.2624992,33.4800017
Kamwelanyata Dug well ,Near Mkuyu tree ,Protected dug well,0,no risk,1589,-11.9972122,33.6565417
Khumbo Ngwira wp,Private Tap,Piped into yard/plot,0,no risk,1592,-10.9764951,33.7485091
,,Borehole or tubewell,0,no risk,1593,-9.9522622,33.9088469
Gulule Nyathi community swallow well ,Near kaulye hill ,Protected dug well,0,no risk,1596,-11.7747508,33.7192750
Nkhata tap,Near salawe hills,Piped into yard/plot,0,no risk,1597,-11.0078848,33.8546354
Bwati,,Piped into public tap / standpipe / basin,0,no risk,1598,-10.9717413,33.7591484
Glomigo ngwira tap ,Near M24 road to Hewe ,Piped into yard/plot,0,no risk,1606,-10.9827492,33.7428718
Moses Theu community borehole ,Near kamutuwanjanje river ,Borehole or tubewell,0,no risk,1611,-11.7660170,33.6674869
Kanyerere primary school,Close to kanyerere primary school,Piped into yard/plot,0,no risk,1613,-10.9498656,33.7595833
TDC Bumba School Tap ,Near Kesha trees ,Piped into public tap / standpipe / basin,0,no risk,1614,-11.0238017,33.8490744
ZAHANI COMMUNAL TAP ,Near Matwatwa Hills,Piped into public tap / standpipe / basin,0,no risk,1619,-10.9694008,33.9203571
Kamusisi wp,Private Tap,Piped into yard/plot,0,no risk,1621,-10.9729986,33.7434803
Chatumbwa,,Piped into public tap / standpipe / basin,0,no risk,1622,-11.0277070,33.8478843
Godfrey Shaba water point,Near Fiskani Lodge,Protected dug well,0,no risk,1623,-12.1359596,33.4696982
Kasambanyifwa Dug well,Near Msolo tree,Protected dug well,0,no risk,1624,-11.9717540,33.6328626
Chimwemwe mhango tap ,Near mango tree ,Piped into yard/plot,0,no risk,1635,-10.9763107,33.7499188
Dukamunthusi tap 4,Near mayembe school ,Piped into public tap / standpipe / basin,0,no risk,1636,-11.0121063,33.8645152
Borehole monitoring karonga office,Near mango tree,Other,0,no risk,1641,-9.9366910,33.9276533
Mkhwinya Nyirogo borehole ,Near Luwazi river ,Borehole or tubewell,0,no risk,1643,-11.2006200,33.8893433
Chenyentha,,Protected dug well,0,no risk,1644,-10.8248188,34.0126702
Mwamande Anock Protected dugwell,Near bluegum tree,Protected dug well,0,no risk,1645,-9.8564128,33.8722338
Jewe Zgambo,Embangweni,Borehole or tubewell,0,no risk,35384,-12.2091037,33.5141829
Jewe Zgambo,Embangweni,Borehole or tubewell,0,no risk,33008,-12.2091037,33.5141829
Jewe Zgambo,Embangweni,Borehole or tubewell,0,no risk,12745,-12.2091037,33.5141829
Jewe Zgambo,Embangweni,Borehole or tubewell,0,no risk,35837,-12.2091037,33.5141829
Chalowataya,Embangweni,Borehole or tubewell,0,no risk,33605,-12.1997325,33.4900634
Chalowataya,Embangweni,Borehole or tubewell,0,no risk,33026,-12.1997325,33.4900634
Chalowataya,Embangweni,Borehole or tubewell,0,no risk,4873,-12.1997325,33.4900634
Chalowataya,Embangweni,Borehole or tubewell,0,no risk,33743,-12.1997325,33.4900634
Chalowataya,Embangweni,Borehole or tubewell,0,no risk,33605,-12.1997325,33.4900634
Chalowataya,Embangweni,Borehole or tubewell,0,no risk,33026,-12.1997325,33.4900634
Chalowataya,Embangweni,Borehole or tubewell,0,no risk,4873,-12.1997325,33.4900634
Chalowataya,Embangweni,Borehole or tubewell,0,no risk,33743,-12.1997325,33.4900634
Chalowataya,Embangweni,Borehole or tubewell,0,no risk,33605,-12.1997325,33.4900634
Chalowataya,Embangweni,Borehole or tubewell,0,no risk,33026,-12.1997325,33.4900634
Chalowataya,Embangweni,Borehole or tubewell,0,no risk,4873,-12.1997325,33.4900634
Chalowataya,Embangweni,Borehole or tubewell,0,no risk,33743,-12.1997325,33.4900634
Jewe Zgambo,Embangweni,Borehole or tubewell,0,no risk,35384,-12.2091037,33.5141829
Jewe Zgambo,Embangweni,Borehole or tubewell,0,no risk,33008,-12.2091037,33.5141829
Jewe Zgambo,Embangweni,Borehole or tubewell,0,no risk,12745,-12.2091037,33.5141829
Matandala dugwell,Near big mango trees,Unprotected dug well,0,no risk,1666,-9.8598231,33.8976463
Jewe Zgambo,Embangweni,Borehole or tubewell,0,no risk,35837,-12.2091037,33.5141829
Jewe Zgambo,Embangweni,Borehole or tubewell,0,no risk,35384,-12.2091037,33.5141829
Jewe Zgambo,Embangweni,Borehole or tubewell,0,no risk,33008,-12.2091037,33.5141829
Jewe Zgambo,Embangweni,Borehole or tubewell,0,no risk,12745,-12.2091037,33.5141829
Jewe Zgambo,Embangweni,Borehole or tubewell,0,no risk,35837,-12.2091037,33.5141829
,,,0,no risk,1672,-10.8344733,34.0118667
Chatumbwa,,Piped into public tap / standpipe / basin,0,no risk,1676,-11.0204055,33.8400604
CHIRAMBO TAP,Near chikhuni to bondi road,Piped into public tap / standpipe / basin,0,no risk,1677,-11.0148332,33.8522573
Chilongozi,,Piped into public tap / standpipe / basin,0,no risk,1679,-10.9733378,33.7457245
Chaliwa Nkhata  Borehole ,Near Chiyombo tree ,Borehole or tubewell,0,no risk,1681,-11.8325166,33.6503815
Suku Moyo  shallow well,Along Wanitaya stream,Protected dug well,0,no risk,1682,-11.6620942,33.3218939
Milala School Borehole,,Borehole or tubewell,0,no risk,1683,-11.9352475,33.5411874
Chimimba Water Point,,Borehole or tubewell,0,no risk,1686,-11.9825784,33.5394811
Moyenda mshani water point ,Near mango tree ,Piped into public tap / standpipe / basin,0,no risk,1687,-11.0280123,33.8473697
Chabuka tap,Near buwila road ,Piped into public tap / standpipe / basin,0,no risk,1688,-10.9952594,33.8153502
Chibalo Shawa Water Point,,Borehole or tubewell,0,no risk,1689,-11.8551424,33.5227223
,,Borehole or tubewell,0.3045654296875,intermediate risk,1690,-9.9445052,33.8978975
Kefinasi Mnyenyembe tap,Near runyina river,Piped into yard/plot,0,no risk,1693,-10.9693068,33.7539450
Chisovya,,Piped into public tap / standpipe / basin,0,no risk,1695,-10.9363891,33.9402558
Zeru zadada 2 wp,Private tap,Piped into yard/plot,0,no risk,1697,-10.9808324,33.7422716
Kolanikolani vge tap,Near mhuju road,Piped into public tap / standpipe / basin,0,no risk,1702,-10.9328922,33.9452113
Jomago Mawuvi Tap wp,Private Tap,Piped into yard/plot,0,no risk,1705,-10.9698976,33.7559797
Munyongani,,Protected dug well,0,no risk,1706,-10.9377649,33.9192108
Chituzu shallow well,Near  anthill,Protected dug well,0,no risk,1707,-12.1366848,33.3860212
Chauluma Mhango Borehole 1,Near Kavunguti Hill ,Borehole or tubewell,0,no risk,1710,-11.4686805,33.6302059
Songamino borehole ,Near road to Songamino School ,Borehole or tubewell,0,no risk,1712,-11.0812505,34.0290666
Kapingiri,,Piped into public tap / standpipe / basin,0,no risk,1713,-10.9726598,33.6884894
Kawazamawe,,Borehole or tubewell,0,no risk,1715,-10.9751474,33.7129989
Jacob Katondeka Water Point,,Borehole or tubewell,0,no risk,1716,-12.2757798,33.3783429
Karjin Hollander,,Borehole or tubewell,0,no risk,1718,-11.5000826,33.9517766
Timoti Makamo Water Point,,Borehole or tubewell,0,no risk,1719,-11.8966080,33.4750805
Matonje,,Piped into public tap / standpipe / basin,0,no risk,1720,-10.7679564,34.2050465
Nyoni,near the church,Borehole or tubewell,0,no risk,1721,-9.9419351,33.8913123
Sambizga borehole ,Near Thoza fp school ,Borehole or tubewell,0,no risk,1723,-12.0809911,33.5305403
Lekaleka tap,Near chikalamba to chankhomi school road,Piped into yard/plot,0,no risk,1724,-11.0133909,33.8492661
Samu Chirwa Dug well,Near Chiwale tree,Protected dug well,0,no risk,1726,-11.8430186,33.7578346
Jailosi Mhlanga,T.A. Mtwalo Mzimba,Borehole or tubewell,0,no risk,1728,-11.3631080,33.9768050
Chimutole village borehole ,Near date pamu tree ,Borehole or tubewell,0,no risk,1729,-11.6632964,33.5900622
Chikhazika Village Borehole,A water point in Chikhazika Ngwira village,Borehole or tubewell,0,no risk,1731,-11.3170149,33.9389506
Chatumbwa,,Piped into public tap / standpipe / basin,0,no risk,1732,-11.0266759,33.8493940
Mwachifumia hand dug well,Near tnuli river,Protected dug well,0,no risk,1736,-10.8285526,34.0259190
Ngwendema tap 5,Near mayembe school ,Piped into yard/plot,0,no risk,1737,-11.0124399,33.8642102
Luweko katete shallow well ,South of swaswa FP school about 2km,Protected dug well,0,no risk,1738,-12.2070951,33.4353516
Jason Harawa'so tap,Near  new apostolic Church ,Piped into public tap / standpipe / basin,0,no risk,1739,-10.7273325,34.0809095
Nkhata tap,Along the road from nchenachena to nchenachena smallholder ,Piped into public tap / standpipe / basin,0,no risk,1742,-10.7527751,34.0256943
Wisdom Nyimbiri wp,Private Tap,Piped into yard/plot,0,no risk,1745,-10.9782617,33.7422910
Jalawe cdss waterpoint,Near jalawe cdss,Borehole or tubewell,0,no risk,1749,-10.7337050,34.1268222
Mwawi  zimbiri  water point ,Near bluegum tree ,Piped into public tap / standpipe / basin,0,no risk,1750,-11.0252662,33.8555137
Baghaya,,Piped into public tap / standpipe / basin,0,no risk,1751,-10.7580042,34.2074768
Chimkayaya tap,Near mwachanda to hewe road,Piped into public tap / standpipe / basin,0,no risk,1754,-10.9663305,33.6725403
MALINDA VILLAGE TAP 2,About 300m away West from Ng'onga Health Centre ,Piped into public tap / standpipe / basin,0,no risk,1756,-10.9366753,33.9466270
Chimbala Zgoka Moyo water point,"In Chimbala Zgoka Moyo village, the houses opposite Chief Village Headman House",Borehole or tubewell,0,no risk,1758,-11.4186585,33.9119988
Mwachilimba community ,Near mwachilimba community ground ,Borehole or tubewell,0,no risk,1759,-10.9652216,33.7282694
Chimugonenge wp,Private Tap,Piped into yard/plot,0,no risk,1762,-10.9777508,33.7404098
Chatumbwa,,Piped into public tap / standpipe / basin,0,no risk,1764,-11.0167968,33.8452072
Moya tap 2,Near Rukuru river ,Piped into yard/plot,0,no risk,1765,-11.0234535,33.8588250
Panji WP,Private tap,Piped into yard/plot,0,no risk,1766,-10.9752668,33.7044452
Nyamulimila WP,Private Tap,Piped into yard/plot,0,no risk,1767,-10.9750901,33.7049843
Zondani WP,Private tap,Piped into yard/plot,0,no risk,1768,-10.9766680,33.7037525
Chanthomba communal tap 2,Near Masuku tree,Piped into public tap / standpipe / basin,0,no risk,1769,-11.9025901,33.5900093
Mziuka vge tap,Near a mango tree,Piped into public tap / standpipe / basin,0,no risk,1772,-10.9005075,33.9710685
Kafamake unprotected well ,Near anthill ,Unprotected dug well,0,no risk,1773,-11.9528319,33.3143129
Chatumbwa Tap 25,Near Peak Secondary school ,Piped into public tap / standpipe / basin,0,no risk,1774,-11.0173414,33.8428924
Bongololo,,Piped into public tap / standpipe / basin,0,no risk,1775,-10.9733989,33.7398619
Nyasulu shallow well ,Near katope river ,Protected dug well,0,no risk,1779,-11.0904262,34.0046805
Gomeka,,Piped into public tap / standpipe / basin,0,no risk,1782,-11.0211478,33.8664596
Kaswelera community tap ,Near the trees ,Piped into public tap / standpipe / basin,0,no risk,1791,-10.8354688,33.5947900
Mziriwanda,,Protected dug well,0,no risk,1792,-10.7791446,34.0415389
Enqcongolweni Monitoring well ,At Enqcongolweni Primary school Mzimba 50m west of the standard 5 block ,Borehole or tubewell,0,no risk,1796,-11.3096338,33.8807003
Tryson Tap WP,Near tryson house,Piped into yard/plot,0,no risk,1797,-10.9547160,33.7444990
Chembezi water point,Near Keisha tree ,Piped into public tap / standpipe / basin,0,no risk,1799,-11.0238068,33.8521163
Gwisu Lungu ,At his residence ,Protected dug well,0,no risk,1801,-12.2567270,33.4862054
Nyondo tap,Near Rukuru river ,Piped into yard/plot,0,no risk,1803,-11.0235360,33.8581641
Cabonda borehole,,Borehole or tubewell,0,no risk,1805,-11.0111610,33.7385338
Uchanda Saka Dug well ,Near Katope tree ,Protected dug well,0,no risk,1806,-12.0185925,33.7164777
Kayunguna community tap,Near mango tree ,Piped into yard/plot,0,no risk,1808,-10.9884624,33.7740784
Mzota village borehole,,Borehole or tubewell,0.6766357421875,high risk,1810,-11.0301446,33.7440410
Chizaso borehole,,Borehole or tubewell,0,no risk,1811,-11.0278358,33.7494066
Mutawania,,Borehole or tubewell,0,no risk,1813,-11.0217949,33.7453739
Jalira 2 borehole,,Borehole or tubewell,0,no risk,1814,-11.0334656,33.7369963
Chingeti borehole,,Borehole or tubewell,0,no risk,1815,-11.0206255,33.7351252
Mulumang'ombe shallow well ,Near China area ,Protected dug well,0,no risk,1816,-11.0157036,34.1153493
Lubinga,,Piped into public tap / standpipe / basin,0,no risk,1817,-10.9898163,33.7618862
Chinkhuntha,,Borehole or tubewell,0,no risk,1823,-11.0389044,33.7292816
Lungu vulakaini 2,Near valala stream,Protected dug well,0,no risk,1824,-12.0602750,33.3238499
Eliance simwawa tap ,Near Bolero Holly cross church ,Piped into yard/plot,0,no risk,1825,-10.9770496,33.7393641
Sokolo primary school water point,At sokolo primary s hool,Borehole or tubewell,0,no risk,1827,-10.9169159,33.6523588
Lowole Makomo Water Point,,Borehole or tubewell,0,no risk,1831,-11.9190272,33.3854821
Zabron Ngwira Water Point,,Borehole or tubewell,0,no risk,1832,-11.9573190,33.4251940
Katawazika Munthali borehole,28 metres from Melayina tree,Borehole or tubewell,0,no risk,1833,-11.4580754,33.4747424
Kabaye Makomo Water Point,,Borehole or tubewell,0,no risk,1834,-11.9265378,33.5275788
Chitembeya Banda Water Point,,Borehole or tubewell,0,no risk,1838,-11.9894175,33.4903801
Yeremia Lungu borehole,near kakoma fp school,Borehole or tubewell,0,no risk,1839,-12.1783159,33.4825463
Kamchilemba borehole ,Near Kalungulu fp school ,Borehole or tubewell,0,no risk,1841,-12.1037659,33.4975057
Wuchindami chawinga tap ,Near Bolero Agriculture office ,Piped into yard/plot,0,no risk,1844,-10.9809813,33.7454675
,,Borehole or tubewell,0,no risk,1850,-11.4408358,33.6362281
Shadreck Nyasulu water point ,Near paw paw & mango trees,Piped into yard/plot,0,no risk,1851,-11.1696802,33.8804234
Mzokoto Monitoring well ,About 50m south of mzokoto Primary school ,Borehole or tubewell,0,no risk,1855,-10.9095433,34.0306458
Monkhouo 2 borehole,,Borehole or tubewell,0,no risk,1857,-11.0524288,33.7223286
Bumba Monitoring well ,At Bumba Primary school (Rumphi) about 30m south of Headmaster's office ,Borehole or tubewell,0,no risk,1858,-11.0248359,33.8491874
Lundu Monitoring well,At Lundu Primary school (Rumphi) close to teachers houses,Borehole or tubewell,0,no risk,1861,-10.9247222,33.7386592
Chiwefu Nkhoma borehole,Near a mango tree and bananas,Borehole or tubewell,0,no risk,1862,-11.7620307,33.4987417
,,Borehole or tubewell,0,no risk,1872,-9.8931044,33.9268517
Nyirenda molly tap ,Near mkama tree ,Piped into yard/plot,0,no risk,1875,-11.0143175,33.8442678
Kanjululu,,Piped into public tap / standpipe / basin,0,no risk,1882,-10.9639250,33.9323030
Mama Nyaziwa wp,Private tap,Piped into yard/plot,0,no risk,1885,-10.9737107,33.7464700
Yakhobe Game Village Borehole,Under Mangoe Tree,Borehole or tubewell,0,no risk,1887,-11.7021219,33.3536812
Chamomono,Chamomono,Borehole or tubewell,0,no risk,1889,-10.7722817,34.0325350
Kamucheule 4 water tap ,Near Betha school ,Piped into public tap / standpipe / basin,0,no risk,1892,-10.8360720,34.0879618
Mulungu tap 2,Near st dennis to chikalamba bridge road,Piped into yard/plot,0,no risk,1894,-11.0111036,33.8526743
Babatoni Jprimary school,Near babatoni Jprimary school,Borehole or tubewell,0,no risk,1897,-11.5249397,33.3346122
Loudon TTC,,Borehole or tubewell,0,no risk,3896,-12.1450356,33.4827091
Loudon TTC,,Borehole or tubewell,0,no risk,12636,-12.1450356,33.4827091
Loudon TTC,,Borehole or tubewell,0,no risk,33697,-12.1450356,33.4827091
Loudon TTC,,Borehole or tubewell,0,no risk,33554,-12.1450356,33.4827091
Mtajili Chipeta Water Point,,Borehole or tubewell,0,no risk,1912,-11.9370299,33.4164378
Kawazamawe2 wp,Private tap,Piped into yard/plot,0,no risk,1914,-10.9743097,33.7211325
Mwabi Private Secondary School,,Borehole or tubewell,0,no risk,35833,-12.1238064,33.4786929
Mwabi Private Secondary School,,Borehole or tubewell,0,no risk,21341,-12.1238064,33.4786929
Mwabi Private Secondary School,,Borehole or tubewell,0,no risk,33775,-12.1238064,33.4786929
Mwabi Private Secondary School,,Borehole or tubewell,0,no risk,25452,-12.1238064,33.4786929
Bingu Village,,Borehole or tubewell,0,no risk,1937,-10.8217420,34.0654700
Loudon TTC,,Borehole or tubewell,0,no risk,3896,-12.1450356,33.4827091
Loudon TTC,,Borehole or tubewell,0,no risk,12636,-12.1450356,33.4827091
Loudon TTC,,Borehole or tubewell,0,no risk,33697,-12.1450356,33.4827091
Loudon TTC,,Borehole or tubewell,0,no risk,33554,-12.1450356,33.4827091
Loudon TTC,,Borehole or tubewell,0,no risk,3896,-12.1450356,33.4827091
Loudon TTC,,Borehole or tubewell,0,no risk,12636,-12.1450356,33.4827091
Loudon TTC,,Borehole or tubewell,0,no risk,33697,-12.1450356,33.4827091
Loudon TTC,,Borehole or tubewell,0,no risk,33554,-12.1450356,33.4827091
Mwabi Private Secondary School,,Borehole or tubewell,0,no risk,35833,-12.1238064,33.4786929
Mwabi Private Secondary School,,Borehole or tubewell,0,no risk,21341,-12.1238064,33.4786929
Mwabi Private Secondary School,,Borehole or tubewell,0,no risk,33775,-12.1238064,33.4786929
Mwabi Private Secondary School,,Borehole or tubewell,0,no risk,25452,-12.1238064,33.4786929
Mwabi Private Secondary School,,Borehole or tubewell,0,no risk,35833,-12.1238064,33.4786929
Mwabi Private Secondary School,,Borehole or tubewell,0,no risk,21341,-12.1238064,33.4786929
Mwabi Private Secondary School,,Borehole or tubewell,0,no risk,33775,-12.1238064,33.4786929
Mwabi Private Secondary School,,Borehole or tubewell,0,no risk,25452,-12.1238064,33.4786929
Chikwesa Nkhoma water point,Near embangweni Animal slaughter site,Protected dug well,0,no risk,1669,-12.1426752,33.4695235
Water montoring borehole,Near mango tree,Borehole or tubewell,0,no risk,2029,-9.9328180,33.9371110
,,,0,no risk,2076,-9.8838602,33.9111475
Rtc tap 5,Close to RTC office  block,Piped into public tap / standpipe / basin,0,no risk,2077,-12.1091424,33.4171854
RAIPLY New Compound Dug well 3,Near Msuku tree ,Protected dug well,0,no risk,2080,-11.9298126,33.7634231
Mwanganya Resource Centre borehore ,Near silu youth resource centre,Borehole or tubewell,0,no risk,2082,-9.9392757,33.8250321
Chakukhuluka  shallowell ,Near luhono primary  school ,Borehole or tubewell,0,no risk,2084,-10.9871485,33.6379374
,,Borehole or tubewell,0,no risk,2087,-11.2846795,33.4810385
Chisovya,,Piped into public tap / standpipe / basin,0,no risk,2088,-10.9455432,33.9402142
Chandiona  water point 2,Near  mango tree ,Piped into public tap / standpipe / basin,0,no risk,2098,-10.9813643,33.7525993
Mankhambira jere bore hole,Near trees,Borehole or tubewell,0,no risk,2099,-11.5548567,33.5062411
,,Borehole or tubewell,0,no risk,2100,-11.3856398,33.5633403
Mbalachanda DEC borehole 1,Near Staff room block,Borehole or tubewell,0,no risk,2101,-11.3561383,33.3762409
Chikalamba,,Piped into public tap / standpipe / basin,0,no risk,2103,-11.0248396,33.8545960
Kamuvwikamo borehole,Near hungulu dams,Borehole or tubewell,0,no risk,2105,-10.8592061,34.0667916
Chilundanya,,Surface water,0,no risk,2106,-11.0051590,33.7896827
Baula,,Piped into public tap / standpipe / basin,0,no risk,2108,-11.0189369,33.8482043
Walusungu Permaculture Garden Borehole,Near Main Road,Borehole or tubewell,0,no risk,2114,-11.9254615,33.6065268
Thumbo village shallow well ,Along  Chipakala river ,Protected dug well,0,no risk,2117,-10.1125917,33.6860907
Bongololo,,Piped into public tap / standpipe / basin,0,no risk,2119,-10.9768889,33.7388700
,,Borehole or tubewell,0,no risk,2121,-11.2837560,33.5778830
Chinombo songo borehole ,Near Mzalagwe Euthini road ,Borehole or tubewell,0,no risk,2122,-11.5887358,33.5292606
Makupula,,Piped into public tap / standpipe / basin,0,no risk,2126,-10.9626607,33.6905996
Ng'ombeyavuka kamanga community borehole ,Near kajosi river ,Borehole or tubewell,0,no risk,2127,-11.7738844,33.6624739
Chiwira  Ngwira  borehole ,South of  Nkhunga chipangano  church  30m,Protected dug well,0,no risk,1545,-12.2754991,33.4197222
Chisenga,Chisenga,Borehole or tubewell,1.228271484375,high risk,21214,-12.2523717,33.4261917
Chisenga,Chisenga,Borehole or tubewell,1.228271484375,high risk,33619,-12.2523717,33.4261917
Chisenga,Chisenga,Borehole or tubewell,1.228271484375,high risk,12077,-12.2523717,33.4261917
Chisenga,Chisenga,Borehole or tubewell,1.228271484375,high risk,7567,-12.2523717,33.4261917
Chisenga,Chisenga,Protected dug well,1.2557373046875,high risk,5032,-12.2519750,33.4262950
Chisenga,Chisenga,Protected dug well,1.2557373046875,high risk,21215,-12.2519750,33.4262950
Chisenga,Chisenga,Protected dug well,1.2557373046875,high risk,12092,-12.2519750,33.4262950
Chisenga,Chisenga,Protected dug well,1.2557373046875,high risk,33189,-12.2519750,33.4262950
Chisenga,Chisenga,Borehole or tubewell,1.27197265625,high risk,25471,-12.2515617,33.4262850
Chisenga,Chisenga,Borehole or tubewell,1.27197265625,high risk,9523,-12.2515617,33.4262850
Chisenga,Chisenga,Borehole or tubewell,1.27197265625,high risk,21210,-12.2515617,33.4262850
Chisenga,Chisenga,Borehole or tubewell,1.27197265625,high risk,12096,-12.2515617,33.4262850
Chisenga,Chisenga,Borehole or tubewell,1.27197265625,high risk,25471,-12.2515617,33.4262850
Chisenga,Chisenga,Borehole or tubewell,1.27197265625,high risk,9523,-12.2515617,33.4262850
Chisenga,Chisenga,Borehole or tubewell,1.27197265625,high risk,21210,-12.2515617,33.4262850
Chisenga,Chisenga,Borehole or tubewell,1.27197265625,high risk,12096,-12.2515617,33.4262850
Chisenga,Chisenga,Borehole or tubewell,1.228271484375,high risk,21214,-12.2523717,33.4261917
Mzumbazumba Borehole ,Near Mango trees ,Borehole or tubewell,0,no risk,2178,-10.0067828,33.9496580
Chisenga,Chisenga,Borehole or tubewell,1.228271484375,high risk,33619,-12.2523717,33.4261917
Chisenga,Chisenga,Borehole or tubewell,1.228271484375,high risk,12077,-12.2523717,33.4261917
Chisenga,Chisenga,Borehole or tubewell,1.228271484375,high risk,7567,-12.2523717,33.4261917
Chisenga,Chisenga,Protected dug well,1.2557373046875,high risk,5032,-12.2519750,33.4262950
Chisenga,Chisenga,Protected dug well,1.2557373046875,high risk,21215,-12.2519750,33.4262950
Chisenga,Chisenga,Protected dug well,1.2557373046875,high risk,12092,-12.2519750,33.4262950
Chisenga,Chisenga,Protected dug well,1.2557373046875,high risk,33189,-12.2519750,33.4262950
Chisenga,Chisenga,Borehole or tubewell,1.27197265625,high risk,25471,-12.2515617,33.4262850
Chisenga,Chisenga,Borehole or tubewell,1.27197265625,high risk,9523,-12.2515617,33.4262850
Chisenga,Chisenga,Borehole or tubewell,1.27197265625,high risk,21210,-12.2515617,33.4262850
Chisenga,Chisenga,Borehole or tubewell,1.27197265625,high risk,12096,-12.2515617,33.4262850
Davison Gondwe,Private,Piped into yard/plot,0,no risk,2191,-10.9572864,33.7642367
Chisenga,Chisenga,Protected dug well,1.2557373046875,high risk,5032,-12.2519750,33.4262950
Chisenga,Chisenga,Protected dug well,1.2557373046875,high risk,21215,-12.2519750,33.4262950
Chisenga,Chisenga,Protected dug well,1.2557373046875,high risk,12092,-12.2519750,33.4262950
Chisenga,Chisenga,Protected dug well,1.2557373046875,high risk,33189,-12.2519750,33.4262950
Chisenga,Chisenga,Borehole or tubewell,1.228271484375,high risk,21214,-12.2523717,33.4261917
Chisenga,Chisenga,Borehole or tubewell,1.228271484375,high risk,33619,-12.2523717,33.4261917
Chisenga,Chisenga,Borehole or tubewell,1.228271484375,high risk,12077,-12.2523717,33.4261917
Chisenga,Chisenga,Borehole or tubewell,1.228271484375,high risk,7567,-12.2523717,33.4261917
Tizgolechi water point ,Near bluegum tree ,Piped into public tap / standpipe / basin,0,no risk,2201,-11.0270404,33.8529351
Benson  mvula  water point ,Near bluegum tree ,Piped into public tap / standpipe / basin,0,no risk,2205,-11.0101671,33.8492291
Chiweko tap,Near baobab tree,Piped into public tap / standpipe / basin,0,no risk,2206,-11.0129167,33.8484505
Vizenge Tap,Near bolero to hewe m24 road,Piped into yard/plot,0,no risk,2210,-10.9705690,33.6813971
Nyozomo Chima Borehole 3,Near Kapangamawe river ,Borehole or tubewell,0,no risk,2211,-11.4342921,33.6401821
Chigwere Tap ,150m away left Rumphi Nyika Road ,Piped into public tap / standpipe / basin,0,no risk,2213,-11.0225131,33.8444923
Mnjiri CDSS Tap 1,Near Cinderella tree,Piped into public tap / standpipe / basin,0,no risk,2221,-11.8920520,33.5829447
Chizala Tap ,Near mango tree ,Piped into yard/plot,0,no risk,2224,-11.0314276,33.9357291
Partson Sakala Tap ,Near Mango tree ,Piped into public tap / standpipe / basin,0,no risk,2225,-11.0196887,33.8439119
Jamu chiziwa borehole ,Along bwabwa -kasitu road ,Borehole or tubewell,0,no risk,2227,-11.3883289,33.8105149
Kelibe Mukalira,Close to Kelibe house,Piped into yard/plot,0,no risk,2231,-10.9471438,33.7479973
Kawamba borehole ,Near katope river ,Borehole or tubewell,0,no risk,2232,-11.0585092,34.0050163
Gidione Lungu borehole ,Near M1 road from Ekwendeni to Enukweni ,Borehole or tubewell,0,no risk,2234,-11.2084967,33.8830267
Chibalazi gondwe tap,Near enukweni trading centre,Piped into public tap / standpipe / basin,0,no risk,2236,-11.1837317,33.8817881
Kumwenda J tap,Near bondi road,Piped into public tap / standpipe / basin,0,no risk,2237,-11.0134641,33.8518329
,,Borehole or tubewell,0,no risk,2240,-11.3060923,33.4169229
Mphande primary school borehole ,At mphande primary school ,Borehole or tubewell,0.7432861328125,high risk,2244,-10.9342313,33.7502371
Katunga school borehole ,Near katunga school ,Borehole or tubewell,0,no risk,2247,-10.9293899,34.0789066
Ganje,,Piped into public tap / standpipe / basin,0,no risk,2285,-10.8955878,33.9742921
Kayamba,,Piped into public tap / standpipe / basin,0,no risk,2286,-10.7785224,34.0293751
Mtimbula tap,Near prison offices,Piped into public tap / standpipe / basin,0,no risk,2287,-11.0216698,33.8617541
Gamphani Village Water Point,,Borehole or tubewell,0,no risk,2295,-11.8911566,33.5447154
,,Borehole or tubewell,0,no risk,2296,-9.9658793,33.9130444
Chikalamba,,Piped into public tap / standpipe / basin,0,no risk,2313,-11.0070434,33.8447845
Chitokoto School borehole ,Near School woodlot ,Borehole or tubewell,0,no risk,2315,-11.0486666,33.9274221
Kawazamawe,,Borehole or tubewell,0,no risk,2319,-10.9755014,33.7136852
Macha WP,Private,Piped into yard/plot,0,no risk,2320,-10.9489806,33.7467776
Mitwell Banda pump aid.,East of Kanyenyezi primary school 100m.,Protected dug well,0,no risk,2321,-12.2235747,33.3951870
Ngaya Abandoned Borehole , Near Karonga District Hospital ,Borehole or tubewell,0,no risk,2322,-9.9532212,33.9088016
Mwale tap 3,Near mayembe junior primary school ,Piped into yard/plot,0,no risk,2324,-11.0128551,33.8666375
Phwezi Roman Catholic Church water tap ,Near phwezi Roman Catholic Church ,Piped into public tap / standpipe / basin,0,no risk,2325,-10.8953159,34.0423127
Ngoza Nyirenda Dug well ,Along Kachigubidi river ,Protected dug well,0,no risk,2326,-11.7985618,33.7791879
Makupula,,Piped into public tap / standpipe / basin,0,no risk,2328,-10.9628902,33.6908707
Antony Gondwe pyopyo tap,Near kesha trees,Piped into yard/plot,0,no risk,2329,-10.9533800,33.7617717
Kalabuka Mkandawire,Champhira - Mkwapu,Borehole or tubewell,0,no risk,34930,-12.2670367,33.6339267
Kalabuka Mkandawire,Champhira - Mkwapu,Borehole or tubewell,0,no risk,21252,-12.2670367,33.6339267
Kalabuka Mkandawire,Champhira - Mkwapu,Borehole or tubewell,0,no risk,33659,-12.2670367,33.6339267
Kalabuka Mkandawire,Champhira - Mkwapu,Borehole or tubewell,0,no risk,32837,-12.2670367,33.6339267
Kalabuka Mkandawire,Champhira - Mkwapu,Borehole or tubewell,0,no risk,34930,-12.2670367,33.6339267
Kalabuka Mkandawire,Champhira - Mkwapu,Borehole or tubewell,0,no risk,21252,-12.2670367,33.6339267
Kalabuka Mkandawire,Champhira - Mkwapu,Borehole or tubewell,0,no risk,33659,-12.2670367,33.6339267
Kalabuka Mkandawire,Champhira - Mkwapu,Borehole or tubewell,0,no risk,32837,-12.2670367,33.6339267
Kalabuka Mkandawire,Champhira - Mkwapu,Borehole or tubewell,0,no risk,34930,-12.2670367,33.6339267
Kalabuka Mkandawire,Champhira - Mkwapu,Borehole or tubewell,0,no risk,21252,-12.2670367,33.6339267
Kalabuka Mkandawire,Champhira - Mkwapu,Borehole or tubewell,0,no risk,33659,-12.2670367,33.6339267
Kalabuka Mkandawire,Champhira - Mkwapu,Borehole or tubewell,0,no risk,32837,-12.2670367,33.6339267
Mtuzuzu health Post borehole ,South of Mtuzuzu Primary school 100m near mtuzuzu borehole ,Borehole or tubewell,0,no risk,2344,-12.2588985,33.3717626
Iyve nyirenda  water point ,Near Keisha tree ,Piped into public tap / standpipe / basin,0,no risk,2346,-11.0103862,33.8463988
Chamumono,,Piped into public tap / standpipe / basin,0,no risk,2347,-10.7803313,34.0318808
Charles chirambo tap ,Near bluegam tree close to Bolero rural hospital ,Piped into yard/plot,0,no risk,2350,-10.9814517,33.7427073
Mtanila,,Piped into public tap / standpipe / basin,0,no risk,2352,-11.0640265,33.6216838
Chigwiti,,Piped into public tap / standpipe / basin,0,no risk,2353,-10.9402018,33.7420402
Victor  Banda  protected well ,Near Kavukula river,Protected dug well,2.134765625,high risk,2355,-11.9704958,33.3431180
Chilongozi,,Piped into public tap / standpipe / basin,0,no risk,2356,-10.9814354,33.7454383
Rtc tap 7,Near old principle office building ,Piped into public tap / standpipe / basin,0,no risk,2358,-12.1107904,33.4148374
Mathunka primary school borehole,,Borehole or tubewell,0,no risk,2360,-11.0898022,33.6998302
Captain jere community tap ,Near captain jere house,Piped into public tap / standpipe / basin,0,no risk,2366,-12.2846845,33.5700006
Willson Mabuvi Gondwe Tap,Near a mangoe tree,Piped into yard/plot,0,no risk,2367,-10.9702292,33.7577797
Kapoka primary school borehole ,15 metres from mtondo tree ,Borehole or tubewell,0,no risk,2368,-11.4935890,33.5211235
Chikhwalingwa Tap,25m away left of Rumphi Borehole Road,Piped into public tap / standpipe / basin,0,no risk,2371,-11.0179199,33.8058542
Yafeti Tchili Borehole ,Near Msuku tree ,Borehole or tubewell,0,no risk,2372,-11.8437763,33.7222188
Bongololo,,Piped into public tap / standpipe / basin,0,no risk,2374,-10.9760253,33.7406397
Bayson chiwaya water point ,Near bluegum tree ,Piped into public tap / standpipe / basin,0,no risk,2377,-11.0278627,33.8473255
Chikalamba,,Piped into public tap / standpipe / basin,0,no risk,2379,-11.0129237,33.8535188
Chikalamba,,Piped into public tap / standpipe / basin,0,no risk,2385,-11.0153335,33.8538837
Nkhoma CCAP church tap,Near peyalat tree,Piped into public tap / standpipe / basin,0,no risk,2387,-9.9336389,33.9372935
Mpeta  water point 3,Near mango tree ,Piped into public tap / standpipe / basin,0,no risk,2392,-10.9572964,33.6518911
Matala trading centre ,Close to malayina forest,Borehole or tubewell,0,no risk,2393,-11.3810730,33.6132070
Chikalamba,,Piped into public tap / standpipe / basin,0,no risk,2394,-11.0258188,33.8537125
Chithira Chirwa waterpoint,Along the road to Kamwe ,Borehole or tubewell,0,no risk,2398,-11.1817790,33.8179861
M. Kapira tap,Near chikalamba to chikhuni road,Piped into yard/plot,0,no risk,2400,-11.0128750,33.8522356
Grace mwale tap ,Near orange tree ,Piped into yard/plot,0,no risk,2406,-11.0194516,33.8457676
Chawinga Communal wp,communal tap,Piped into public tap / standpipe / basin,0,no risk,2407,-10.9757653,33.7450559
M. Mkandawire pvt tap,At Mrs Kandawire's compound,Piped into public tap / standpipe / basin,0,no risk,2408,-10.7595373,34.2064928
Ntholoke Saka Dug well ,Near Mtowa  Tree,Protected dug well,0,no risk,2410,-12.0275792,33.7101500
Nkhalamuntheta tap,Along the road from lura primary school to nkhalamuntheta ,Piped into public tap / standpipe / basin,0,no risk,2411,-10.7343799,34.0305817
Alice mkandawire tap,Near rumphi river,Piped into public tap / standpipe / basin,0,no risk,2413,-11.0287332,33.8659968
Kalonde,,Piped into public tap / standpipe / basin,0,no risk,2414,-11.0118204,33.7729967
Bonface Kumwenda tap,Near bondi road,Piped into yard/plot,0,no risk,2415,-11.0136280,33.8517150
Madumula community tap ,near mango tree ,Piped into yard/plot,0,no risk,2418,-10.9904704,33.7757897
Richman chipeta tap ,Near Bolero Rural hospital in Rumphi District ,Piped into yard/plot,0,no risk,2421,-10.9807794,33.7423200
Aaron shawa tap ,Near mawerere river ,Piped into yard/plot,0,no risk,2424,-11.0158753,33.8456773
Gomezgani Gondwe tap 1,Near mango tree close to Mtembenge maize mill ,Piped into yard/plot,0,no risk,2425,-10.9790062,33.7463660
Yafeti Tap,Private Tap,Piped into yard/plot,0,no risk,2427,-10.9704412,33.7576124
Chigwiti,,Piped into public tap / standpipe / basin,0,no risk,2428,-10.9408355,33.7438158
Kanjauke borehole,Near banana plantation,Borehole or tubewell,0,no risk,2430,-10.9936411,34.0968433
Mjuma,,Borehole or tubewell,0,no risk,2431,-10.9654142,33.7721858
Chinkhota Vunga borehole,South East of Dimi FP school about 500metres,Borehole or tubewell,0,no risk,2434,-12.1763510,33.4444724
Wato kumwenda borehore ,Close to chasamba river ,Borehole or tubewell,0,no risk,2435,-11.2132707,33.4266334
Bwewo,,Unprotected spring,0,no risk,2438,-10.8480289,34.2104065
Chifipa 3 tap,Along the road from nchenachena to nchenachena smallholder ,Piped into public tap / standpipe / basin,0,no risk,2440,-10.7507935,34.0262995
Bwanawanthenda tap ,Along the road to kauka primary school ,Piped into yard/plot,0,no risk,2442,-10.8581571,33.9906571
Masanika,,Piped into public tap / standpipe / basin,0,no risk,2443,-11.0063014,33.7754661
Kajiti School,,Borehole or tubewell,0,no risk,2451,-11.5191796,33.9222525
Bumba School Tap 2,Near the School ,Piped into public tap / standpipe / basin,0,no risk,2452,-11.0242349,33.8484671
Bolero rural growth center,Near Bolero primary school,Piped into yard/plot,0,no risk,2453,-10.9755512,33.7427916
Fungaphembe borehole,About 300 meters from the main road,Borehole or tubewell,0,no risk,2454,-10.9404588,33.9865985
Malemba  water point ,Near mango tree ,Piped into public tap / standpipe / basin,0,no risk,2456,-11.0233694,33.8515394
Chamaweya,,Piped into public tap / standpipe / basin,0,no risk,2457,-10.7837194,34.2037730
Kayeleka Banda borehole ,Near kadingo football ground ,Borehole or tubewell,0,no risk,2459,-12.0382041,33.4635299
Yaulungu,,Piped into public tap / standpipe / basin,0,no risk,2461,-10.8667799,33.9946351
Vingula,,Piped into public tap / standpipe / basin,0,no risk,2462,-10.8642507,33.9985545
Fukafuka Dug well ,Along Katonje srteam ,Protected dug well,0,no risk,2463,-11.8211691,33.7818117
Chapita pvt tap ,Along chiweta mlowe road ,Piped into public tap / standpipe / basin,0,no risk,2464,-10.7366010,34.2034483
Chimbuyako  water point ,Near bluegum tree ,Piped into public tap / standpipe / basin,0,no risk,2471,-10.9755064,33.7390772
Mwachanda 1 borehole ,Near Rumphi Nyika Road ,Borehole or tubewell,0,no risk,62,-10.9708581,33.6780716
Chidyake Hara Borehole 2,Near Kafukule -Mzimba Road ,Borehole or tubewell,0,no risk,2481,-11.5918138,33.6326034
Chijana Mkandawire,Near Chololo River,Borehole or tubewell,0,no risk,2482,-11.0077563,33.9692204
Majipalive Ntheta shallow well ,Near Thete river ,Protected dug well,0,no risk,2483,-11.7555627,33.7415673
Kahame,,Surface water,0,no risk,2485,-10.7974441,34.0708704
Zondwayo Nkosi 1 borehole ,Along  zgangayi road ,Borehole or tubewell,0,no risk,2486,-11.7634666,33.5680974
Chikalamba tap 8,Near salawe hills,Piped into yard/plot,0,no risk,2487,-11.0091924,33.8551102
Kanyunya,,Piped into public tap / standpipe / basin,0,no risk,2489,-10.9991532,33.7707306
Chikakula,,Unprotected dug well,0,no risk,2492,-10.7918239,34.0288398
CHIWANIWANI VILLAGE TAP 2,Just near Ng'onga primary school ground ,Piped into public tap / standpipe / basin,0,no risk,2493,-10.9458004,33.9417849
Mc Donald Gondwe tap,Near mangoe trees,Piped into yard/plot,0,no risk,2498,-10.9699724,33.7570105
Kahame,,Surface water,0,no risk,2499,-10.7991951,34.0689888
Mwanyembe Borehole ,Near gravel road to Lusako,Borehole or tubewell,0,no risk,2500,-9.8776908,33.8888993
Chigwere,,Piped into public tap / standpipe / basin,0,no risk,2502,-11.0232216,33.8433007
Muhone mark tap ,Near chitotho tree ,Piped into yard/plot,0,no risk,2503,-11.0187416,33.8477649
Pearson Saka borohole,Near big mango tree,Borehole or tubewell,0,no risk,2504,-12.0978811,33.4524251
Botha village borehole ,Near Ekwaiweni Primary school ,Borehole or tubewell,0,no risk,2505,-11.4205706,33.9077784
Mzito  water  point ,Near mkama tree,Borehole or tubewell,0,no risk,2506,-10.9456274,33.5687981
Chikalamba,,Piped into public tap / standpipe / basin,0,no risk,2509,-11.0089529,33.8459627
Kazazaulo borehole,Near Kazazaulo Kumwenda,Borehole or tubewell,0,no risk,2510,-11.5398944,33.2984976
Cheyeka,,Piped into public tap / standpipe / basin,0,no risk,2515,-10.9474366,33.7436877
Chikalamba,,Piped into public tap / standpipe / basin,0,no risk,2517,-11.0268588,33.8539875
Luwagha cbcc tap,Near luwagha trading centre,Piped into public tap / standpipe / basin,0,no risk,2520,-10.9040504,33.9681709
Lunguluka,,Piped into public tap / standpipe / basin,0,no risk,2522,-10.9702778,34.0930258
Petros Luhanga tap,Near kesha tree,Piped into yard/plot,0,no risk,2524,-10.9682100,33.6735388
Chikoko water point ,Near Keisha tree ,Piped into public tap / standpipe / basin,0,no risk,2525,-10.9531883,33.6891300
Edingeni primary school ,Near boarder road,Borehole or tubewell,0,no risk,2529,-12.0451291,33.3124955
Jembe,,Piped into public tap / standpipe / basin,0,no risk,2531,-10.9165368,33.7461623
Watson Gondwe tap ,Near katangaja Maize 6,Piped into public tap / standpipe / basin,0,no risk,2535,-11.0178671,33.8449543
Zebediya Banda 1 Dug well ,Near Katope tree ,Protected dug well,0,no risk,2537,-11.8623543,33.7775696
Chagodi School borehole 2,Near Melina and natural trees,Borehole or tubewell,0,no risk,2541,-11.7851389,33.4514701
Mwawi zgovu tap ,Near bluegam tree ,Piped into yard/plot,0,no risk,2542,-11.0211626,33.8508446
Chalotwa borehole,West of Kamnchenja  FP school,Borehole or tubewell,0,no risk,2545,-12.2440966,33.3266042
Jalawe primary school tap ,At jalawe primary school ,Piped into public tap / standpipe / basin,0,no risk,2546,-10.7316866,34.1630798
Kasiri Lughali Borehole ,Along M1 Road,Borehole or tubewell,0,no risk,2547,-10.0544913,33.9646957
Mbwiliwiza Full Primary School Borehole ,Near Chiyombo tree ,Borehole or tubewell,0,no risk,2548,-11.8456943,33.6603424
Dowela Chihana water point ,Near mango tree ,Piped into yard/plot,0,no risk,2549,-11.1935409,33.9274852
Chiwaya,,Piped into public tap / standpipe / basin,0,no risk,2550,-10.9344607,33.9474939
Chimbirima Gondwe,,Piped into public tap / standpipe / basin,0,no risk,2552,-10.9517994,33.7468096
Chinthuchawaka 2 borehole ,Near chawaluwani river ,Borehole or tubewell,0,no risk,2556,-11.4302939,33.8150979
MaferandawoneTembo Borehole 3,Near Kanyawayi River ,Protected dug well,0,no risk,2557,-11.5637030,33.6593522
Simeon Manda borehole,Near mango trees,Borehole or tubewell,0,no risk,2558,-11.7627571,33.4666822
Chimango Primary school borehole,20 meters from Chimango Primary school ,Borehole or tubewell,0,no risk,2559,-11.4019591,33.5008735
Bera primary school tap ,At  Bera primary school ,Piped into public tap / standpipe / basin,0,no risk,2560,-10.9673223,33.9313275
Luhana tap,Near chikalamba to bondi road,Piped into yard/plot,0,no risk,2561,-11.0122831,33.8504653
Sazu primary school  borehole ,Near Charles chinula graveyard/manyamula katondo road,Borehole or tubewell,0,no risk,2567,-12.0108910,33.4448077
Chikhuwala borehole,Near phwapwa school,Borehole or tubewell,0,no risk,2569,-10.8315242,34.0045955
Nkhalamuntheta,,Protected dug well,0,no risk,2574,-10.7410996,34.0339826
Kaseka,,Piped into public tap / standpipe / basin,0,no risk,2575,-11.0619455,33.6060160
Cheyeka,,Piped into public tap / standpipe / basin,0,no risk,2577,-10.9497700,33.7458488
Chikalamba,,Piped into public tap / standpipe / basin,0,no risk,2582,-11.0073644,33.8420712
Chinkhonkwe Nkosi waterpoint ,Near mango trees ,Borehole or tubewell,0,no risk,2586,-11.3032571,33.7659304
Phwezi CCAP CHURCH water tap ,Near phwezi CCAP CHURCH ,Piped into public tap / standpipe / basin,2.40460205078125,high risk,2587,-10.8924802,34.0420608
Mwale tap5,Near mayembe junior primary school ,Piped into yard/plot,0,no risk,2589,-11.0131782,33.8665393
Chisovya,,Piped into public tap / standpipe / basin,0,no risk,2590,-10.9514119,33.9366535
Kasonkhwe primary school borehole ,Near kasonkhwe school ,Borehole or tubewell,0,no risk,2592,-10.7344484,34.0777317
Baula,,Piped into public tap / standpipe / basin,0,no risk,2595,-11.0186144,33.8484680
Mr mhango tap ,Near pawpaw tree ,Piped into yard/plot,0,no risk,2597,-11.0159076,33.8491557
Makatundu borehole,,Borehole or tubewell,0,no risk,2599,-10.9227907,33.6140292
Research tap 8,Near epa old office block ,Piped into public tap / standpipe / basin,0,no risk,2600,-12.1130667,33.4112265
Khowe CCAP church  tap,Along the road from nchenachena to lura,Piped into public tap / standpipe / basin,0,no risk,2601,-10.7446881,34.0314556
Spennet Ngulube well ,Near Musolomoka stream ,Protected dug well,0,no risk,2604,-11.4641093,33.9336884
Mwagomba tap,Near bluegum ,Piped into yard/plot,0,no risk,2605,-11.0135319,33.8501217
Cheyeka,,Piped into public tap / standpipe / basin,0,no risk,2607,-10.9487448,33.7484619
Mkolongo tap 3,Near mayembe road ,Piped into yard/plot,0,no risk,2609,-11.0142616,33.8640347
Chisovya,,Piped into public tap / standpipe / basin,0,no risk,2610,-10.9434485,33.9469742
Mwasukwe,,Protected dug well,0,no risk,2612,-10.7838218,34.0511589
Ausman Tembo water point,Near Embangweni cattle market,Protected dug well,0,no risk,2616,-12.1409100,33.4689043
Felix Nyirenda tap,Near chikalamba to chikhuni road,Piped into yard/plot,0,no risk,2617,-11.0132501,33.8521593
Mwabubila,,Piped into public tap / standpipe / basin,0,no risk,2618,-10.9898204,33.8121152
Jambalaya mhango tap,Along the road from WUA office to TA mwalweni ,Piped into public tap / standpipe / basin,0,no risk,2621,-10.7387084,34.0413047
Chaparuka borehore ,Close to antihill,Borehole or tubewell,0,no risk,2623,-11.3682248,33.5796782
Kalwela Full Primary School Borehole ,Near Mkhaya tree ,Protected dug well,0,no risk,2624,-12.0234749,33.7069272
Roja WP,Private tap,Piped into yard/plot,0,no risk,2626,-10.9756022,33.6918699
Msuta Phiri,"TA Chindi, Mzimba",Borehole or tubewell,0,no risk,2629,-11.5627930,33.5656810
Jonasi Gondwe tap,Near M24 road to Hewe at Bolero ,Piped into yard/plot,0,no risk,2632,-10.9818981,33.7415168
Bwati,,Piped into public tap / standpipe / basin,0,no risk,2633,-10.9810253,33.7544860
Ken ngoma tap,Near rumphi stadium,Piped into public tap / standpipe / basin,0,no risk,2636,-11.0315527,33.8709507
Chiwelewele,,Piped into public tap / standpipe / basin,0,no risk,2637,-10.7303990,34.0429620
Chanthomba Communal tap 1,Near cinderella tree,Piped into public tap / standpipe / basin,0,no risk,2638,-11.9027648,33.5891237
Sasa primary school borehole ,Near mtende Euthini road ,Borehole or tubewell,0,no risk,2643,-11.5853781,33.5374117
Joan Mwandira ,Near the trees ,Piped into yard/plot,0,no risk,2644,-10.9305384,33.9205054
Zunga trading center tap,At zunga market close to zunga fp school ,Piped into public tap / standpipe / basin,0,no risk,2645,-10.8434350,34.2113198
Joseph  zgovu  water point , Near mango tree ,Piped into public tap / standpipe / basin,0,no risk,2648,-11.0259472,33.8446982
Kapingiri tap 3,Near lundu secondaries school road ,Piped into yard/plot,0,no risk,2649,-10.9257172,33.7407553
Chikalamba,,Piped into public tap / standpipe / basin,0,no risk,2652,-11.0258507,33.8534948
Sawukani wp,Private Tap,Piped into yard/plot,0,no risk,5463,-10.9671253,33.6649069
Sawukani wp,Private Tap,Piped into yard/plot,0,no risk,11489,-10.9671253,33.6649069
Robert sichinga  water point ,Near Keisha tree ,Piped into public tap / standpipe / basin,0,no risk,2660,-11.0276719,33.8473374
Chikalamba,,Piped into public tap / standpipe / basin,0,no risk,2661,-11.0085075,33.8453815
ChikwatI mkandawire village borehole 1,Near mosele tree ,Borehole or tubewell,0,no risk,2662,-11.1756312,33.6070962
Mahawu phiri  BH,Near  Endindneni  Assembles churh,Borehole or tubewell,0,no risk,2664,-11.7621954,33.5566277
Jalira,,Piped into public tap / standpipe / basin,0,no risk,2665,-11.0166493,33.7385694
Yalero,,Surface water,5.1531982421875,high risk,2669,-10.8262929,34.0944230
Chigwere,,Piped into public tap / standpipe / basin,0,no risk,2672,-11.0225355,33.8444775
Kamilaza School Tap 1,Near mtatani tree,Piped into public tap / standpipe / basin,0,no risk,2674,-11.9540033,33.4929120
Chitumbo,,Borehole or tubewell,0,no risk,2679,-11.0867487,33.7250893
Kamucheule,,Piped into public tap / standpipe / basin,0,no risk,2681,-10.8410095,34.0877025
