station_code,station_name,lat,lon
G1966,Na,120.74,14.89
G1967,Na,120.47,15.34
G1969,Na,124.34,7.15
G1970,Na,124.79,7.15
G4608,Pototan Jalaur Bridge,10.91,122.69
G4611,Nabua,123.33,13.40
G4630,Tuguegarao Buntun Bridge,121.69,17.61
G4945,Talacogon Municipal Hall,125.78,8.45
G5368,Nia Pumping Station,125.54,8.89
G5369,Dao Bridge,122.69,11.39
no_station,No station,,
