station_code,station_name,lat,lon,custom_threshold,2yr_threshold,5yr_threshold,10yr_threshold,20yr_threshold,2yr_threshold_7day,5yr_threshold_7day,10yr_threshold_7day,20yr_threshold_7day,2yr_threshold_3day,5yr_threshold_3day,10yr_threshold_3day,20yr_threshold_3day
G1045,Tendaho,11.75,40.95000076,,1369.364258,1774.294189,2124.471436,2299.560059,884.9006745,1019.409934,1261.36394117896,1209.394034,1183.340117,1496.871513,1691.19105,1868.24244
G1053,Adaitu,11.35000038,40.95000076,,1412.969604,1802.743164,2139.813314,2308.348389,850.5548651,963.9839464,121.367757052516,1100.988042,1160.182732,1433.792888,1583.414988,1707.146252
G1067,Melka Sedi,9.149999619,40.15000153,,1330.382568,1565.818848,1769.420573,1871.221436,563.9391958,666.9272605,4836.50655225742,760.2722594,693.4515587,809.2990344,870.7176794,920.3105546
G1074,Metahara,8.850000381,39.95000076,,656.7110596,803.1309814,929.7527262,993.0635986,441.5904277,544.4542232,5672.67390189929,659.8262481,474.3475964,568.3697021,628.6744762,685.1054243
G1603,Gambella,8.25,34.95000076,,2129.934326,2718.602783,3227.67391,3482.209473,1634.004397,1885.924377,497.268325929454,2154.332584,1449.036132,1755.451663,2022.002949,2338.980403
G1901,Omo River Delta,4.849999905,36.04999924,,5359.516602,5960.061523,6479.403971,6739.075195,4234.884482,4614.279774,19751.982092168,4973.55772,5027.051895,5647.692678,6031.433817,6380.425422
G1902,Na,4.75,42.04999924,,430.7146301,567.6884155,686.141215,745.3676147,201.9060609,253.0966085,5667.29881546498,347.251498,372.807027,468.3935782,526.7258463,579.2390411
G1904,Na,5.050000191,44.84999847,,2989.608154,3504.772949,3950.27946,4173.032715,1212.393547,1515.564196,11615.9937029301,1852.814904,1481.501214,1853.684209,2086.847378,2301.073422
G1905,Na,5.449999809,44.45000076,,3006.280029,3526.245361,3975.903402,4200.732422,,,4892.93773817899,,,,,
G1906,Na,5.550000191,44.15000153,,3027.512695,3547.862061,3997.851807,4222.84668,,,4712.66076479238,,,,,
G1907,Na,6.050000191,43.04999924,,3102.725342,3601.234131,4032.336833,4247.888184,1198.203679,1444.031409,4777.78402436876,1650.160384,1389.72018,1708.33269,1892.973161,2052.665056
G4951,Na,11.14999962,41.65000153,,1265.760864,1659.505005,2000.00883,2170.260742,,,234.059401863283,,,,,
G4953,Bahir Dar,11.55000019,37.34999847,,715.8826294,835.1098633,938.2157796,989.7687378,734.4427822,824.2691198,2574.51251043563,912.0223555,737.806337,829.7594563,879.198714,919.5523834
G4954,Na,11.05000019,41.65000153,,273.4700928,507.6593323,710.1825867,811.4442139,,,1882.61704692018,,,,,
G4957,Nr. BAHIR DAR,11.75,37.65000153,,301.9430847,346.1527405,384.3845927,403.5005188,,,733.965509886333,,,,,
G4960,Na,10.85000038,35.15000153,,14122.14453,15207.31445,16145.75195,16614.9707,,,,,,,,
G4965,Nr. ADDIS ZEMEN,12.05000019,37.75,,315.2519226,364.1978149,406.5254517,427.68927,,,29484.9236898768,,,,,
G4969,Na,10.44999981,35.25,,13586.77051,14644.44727,15559.10872,16016.43945,,,,,,,,
G4977,Nr. MARAWI,11.35000038,37.04999924,,472.4191284,649.8909302,803.3657837,880.1032104,,,38200.8540560614,,,,,
G4979,Na,10.05000019,35.75,,10664.375,11567.81641,12349.09896,12739.74023,,,3223.38506650734,,,,,
G4980,Nr. Kessie,10.05000019,38.15000153,,6225.779297,7028.285156,7722.279297,8069.276367,,,,,,,,
G4983,Na,9.850000381,35.75,,3170.067383,3699.101563,4156.602214,4385.352539,,,,,,,,
G5015,EWASO NGIRO (5BC04),-0.050000001,36.84999847,,309.355011,437.7233887,548.7343343,604.2398071,,,,,,,,
G5036,EWASO NAROK (5AC08),0.449999988,36.84999847,,647.9174805,938.6395264,1190.051473,1315.757446,,,,,,,,
G5041,EWASO NAROK (5AC10),0.449999988,36.75,,197.4281921,372.3023987,523.5309347,599.1452026,,,,,,,,
G5056,Na,8.050000191,33.15000153,,421.5037231,522.0715942,609.0411174,652.5258789,,,4972.32802472667,,,,,
G5068,Na,7.650000095,42.04999924,,418.2839966,744.8453369,1027.250529,1168.453125,,,925.569589780016,,,,,
G5075,Mpologoma at Budumba (82217),0.75,33.75,724,532.4899673,650.3923154,724,806.3448834,,,,,,,,
G5076,Na,7.550000191,41.95000076,,3101.799316,3501.674805,3847.480794,4020.383789,,,658.370873152753,,,,,
G5081,Na,7.349999905,42.15000153,,3221.69165,3683.074219,4082.070638,4281.568848,1097.506335,1319.584674,14589.5920114827,1509.521145,1261.289651,1546.161691,1717.290104,1869.475534
G5082,Na,7.349999905,42.25,,77.19597626,145.2753143,204.1492767,233.5862579,,,3016.699302767,,,,,
G5092,PERKERRA (2EE07A),0.449999988,36.04999924,,384.5867615,585.5407104,759.3225301,846.2134399,,,,,,,,
G5114,Kapiri (82227),1.649999976,33.75,,1051.379884,1239.408453,1320.703348,1376.859946,,,,,,,,
G5115,Na,5.75,40.84999847,,1540.771362,1806.054932,2035.468018,2150.174561,408.0198578,496.6460051,1279.59634260848,604.3295898,983.9108981,1127.660733,1203.969252,1265.645377
G5118,ATHI KIBWEZI (3F05),-2.549999952,38.34999847,,211.0447693,372.2154236,511.5932922,581.2822266,,,,,,,,
G5125,NYANGORES (1LA03),-0.850000024,35.25,,100.4954376,188.7342377,265.0417837,303.1955566,,,,,,,,
G5141,Na,4.349999905,41.95000076,,2257.041504,2595.600098,2888.380208,3034.770264,,,2375.87889328484,,,,,
G5142,ATHI MUNYU (3DA02),-1.149999976,37.15000153,,88.30430603,139.3603058,183.5127513,205.588974,,,,,,,,
G5145,Rwizi at Mbarara water works (81224),-0.649999976,30.64999962,108,78.30170142,95.73337922,108,120.0365445,,,,,,,,
G5147,MARA NAROK (1LA04),-1.25,35.04999924,,407.270813,527.4512329,631.3814494,683.3465576,,,,,,,,
G5159,AMALA (1LB02),-0.75,35.54999924,,427.3656006,550.9013672,657.733195,711.1491089,,,,,,,,
G5160,Mayanja (83218),0.649999976,32.15000153,131,114.4734134,131,138.4834333,144.0202666,,,,,,,,
G5161,MIRIU SONDU (1JG04),-0.349999994,34.75,,677.2489014,909.0155029,1109.443726,1209.657837,,,,,,,,
G5163,Pager at Kitgum,3.25,33.84999847,,185.6648247,239.0554669,266.4713254,288.071008,,,,,,,,
G5164,Aswa (ii) (86202),2.950000048,32.54999924,,484.3737308,582.369949,623.8852556,652.1226632,,,,,,,,
G5170,Na,3.150000095,36.04999924,,2607.006592,2992.773193,3326.378337,3493.180908,,,,,,,,
G5171,SUAM (2B05),1.149999976,34.65000153,,204.9988251,284.7061157,353.6357422,388.1005554,,,,,,,,
G5173,Na,2.849999905,37.45000076,,275.5379333,468.5873413,635.5334676,719.0065308,,,,,,,,
G5179,YALA (1FG02),0.050000001,34.15000153,,415.9732971,541.9798584,650.9484049,705.4326782,,,,,,,,
G5189,Muzizi (85211),0.850000024,30.75,73,63.41041175,73,79.30146293,85.23628424,,,,,,,,
G5194,LARGE NZOIA (1BD02),0.75,35.04999924,,1472.99707,1833.789429,2145.796997,2301.800781,,,,,,,,
G5195,NZOIA AT RUAMBWA FERRY (1EF01),0.150000006,34.04999924,,1612.568237,1951.601318,2244.791911,2391.387207,,,,,,,,
G5196,Akokorio at Uganda Gauge,1.75,33.84999847,588,475.5050031,588,640.7659602,672.6455429,,,,,,,,
G5197,NDO (2C07),0.449999988,35.65000153,,350.9134216,437.1864014,511.7939046,549.0976563,,,,,,,,
G5198,AWACH KABUON (1HD04),-0.449999988,34.65000153,,63.66960907,99.53189087,130.5450338,146.0516052,,,,,,,,
G5200,Magoro Ngariam,1.649999976,33.95000076,,504.3544006,644.5651245,765.817159,826.4431763,,,,,,,,
G5208,Na,1.149999976,39.25,,177.1297455,309.3100586,423.6175334,480.7712708,,,,,,,,
G5210,TANA GARISSA (4G01),-0.150000006,39.34999847,,1087.105347,1646.088135,2129.487874,2371.187744,,,,,,,,
G5216,GUCHA MIGORI (1KB05),-0.949999988,34.25,,497.8551636,667.4187622,814.0547485,887.3727417,,,,,,,,
G5218,TANA SAGANA (4BC02),-0.649999976,37.15000153,,308.3146362,404.1282654,486.9863993,528.4154663,,,,,,,,
G5220,Manafwa at Butaleja (82212),0.949999988,34.04999924,475,408.0604405,475,528.7234466,577.7148755,,,,,,,,
G5223,Kyoga Nile at Masindi port (83203),1.649999976,32.04999924,,6783.86077,8202.161056,8919.077086,9477.113963,,,,,,,,
G5224,Mutonga (4EA07),-0.349999994,37.84999847,,565.2338257,762.2387695,932.6055908,1017.789001,,,,,,,,
G5227,Nkusi (85212),1.049999952,30.75,76,62.78680968,72.06479855,76,83.78341598,,,,,,,,
G5230,SIO RIVER (1AH01),0.349999994,34.04999924,149,98.85295669,130.4271776,149,166.2997777,,,,,,,,
G5242,Semliki (85205),0.75,29.85000038,,3213.637544,3474.116619,3616.847979,3735.066154,,,,,,,,
G5299,Thiba (4DD02),-0.75,37.45000076,,325.8656921,440.8967285,540.3737793,590.1123047,,,,,,,,
G5305,TANA HOLA (4G04),-1.450000048,40.04999924,,999.4302368,1538.558105,2004.787598,2237.902344,,,,,,,,
G5317,Mitano (84267),-0.850000024,29.85000038,236,181.1192594,213.8928526,236,256.7939943,,,,,,,,
G5326,TANA GARSEN (4G02),-2.25,40.15000153,,1050.395752,1640.249023,2150.345052,2405.393066,,,,,,,,
G5332,TSAVO (3G02),-3.049999952,38.34999847,,695.2262573,904.6158447,1085.692668,1176.231079,,,,,,,,
G5450,TANA MURANGA (4BE02),-0.75,37.25,,353.9014893,471.0420837,572.343455,622.9941406,,,,,,,,
G6106,Kapelebyong,2.450000048,34.04999924,,92.4243927,160.9732056,220.2531535,249.8931274,,,,,,,,
G6107,Abetlti,8.25,37.54999924,,1717.046387,1919.220337,2094.057332,2181.47583,1585.097097,1696.59345,538.31790078851,1839.366436,1655.203327,1812.759582,1906.355703,1988.873487
G6108,Woltkite,8.25,37.75,,1804.447632,2035.653809,2235.597331,2335.569092,,,1905.98195238347,,,,,
G6109,Asetndabo,7.75,37.25,,419.8782959,454.1875305,483.8576152,498.6926575,358.7317091,383.0431716,578.841245405354,405.6698514,393.7272601,429.4529143,451.2141807,470.7763168
G6110,Woltkite,8.350000381,37.54999924,,113.3216858,138.2306366,159.7715098,170.5419464,,,362.68669616081,,,,,
G6111,Shetbe,7.449999809,36.34999847,,314.4312134,449.8202209,566.9025167,625.4436646,,,206.148832311409,,,,,
G6112,Sekta,7.650000095,36.75,,75.15406799,84.14749908,91.92487335,95.81356049,,,,,,,,
F0030,R.ManafaatButaleja,0.949999988,34.04999924,,405.0222168,500.7790222,583.5880025,624.9924927,,,,,,,,
F0032,R.MpologomaatBudumba,0.75,33.75,,717.4564209,931.2064819,1116.05426,1208.478149,,,,,,,,
F0033,R.KyogaNileatMasindiport,1.649999976,32.04999924,,4956.329102,6367.109375,7587.130859,8197.141602,,,,,,,,
F0034,R.Kapiri,1.549999952,33.65000153,,401.1691895,513.0970459,609.8905029,658.2872314,,,,,,,,
F0035,R.RwiziatMbararawaterworks,-0.649999976,30.64999962,,86.80548859,116.7643127,142.672231,155.6261902,,,,,,,,
F0036,R.Muzizi,0.050000001,30.64999962,,45.50586319,71.20127106,93.42225901,104.532753,,,,,,,,
F0037,R.Aswa-ii,2.950000048,32.54999924,,188.3458099,326.7757263,446.4877625,506.3437805,,,,,,,,
F0038,R.Mitano,-0.75,29.75,,796.5535278,1270.710327,1680.753784,1885.775513,,,,,,,,
F0039,R.Mayanja,0.649999976,32.15000153,,86.36533356,115.6120148,140.9040883,153.5501251,,,,,,,,
F0041,R.Nkusi,1.149999976,30.95000076,,49.08603287,59.46694946,68.44420878,72.93283844,,,,,,,,
F0042,R.PageratKitgum,3.150000095,33.75,,145.822876,244.4228058,329.6904958,372.3243408,,,,,,,,
F0031,R.Sio,0.150000006,34.04999924,,1612.568237,1951.601318,2244.791911,2391.387207,,,,,,,,
UGGVS1,,0.850000024,32.75,,109.8863602,151.3385773,187.1858164,205.109436,,,,,,,,
UGGVS2,,1.25,32.95000076,,3662.697021,4693.966309,5585.792155,6031.705078,,,,,,,,
UGGVS3,,1.350000024,33.34999847,,1621.214844,2132.356445,2574.383952,2795.397705,,,,,,,,
UGGVS4,,2.549999952,32.95000076,,81.16942596,167.0905762,241.3938395,278.5454712,,,,,,,,
UGGVS5,,0.050000001,30.25,,530.6730347,611.0307007,680.5227661,715.2687988,,,,,,,,
UGGVS6,,-0.150000006,30.04999924,,436.335968,503.6772461,561.9129639,591.0308228,,,,,,,,
UGGVS7,,1.049999952,30.25,,4057.960205,4449.030762,4787.222819,4956.318848,,,,,,,,
KEGVS1,,2.950000048,40.45000076,,151.981308,277.6569824,386.3393555,440.680542,,,,,,,,
KEGVS2,,2.549999952,38.84999847,,71.55390167,178.3694611,270.7418874,316.9281006,,,,,,,,
KEGVS3,,1.649999976,37.45000076,,164.2182312,266.4931641,354.9389445,399.1618347,,,,,,,,
KEGVS4,,1.549999952,36.25,,136.2773438,243.5820923,336.3775838,382.7753296,,,,,,,,
KEGVS5,,1.850000024,35.45000076,,2647.74585,2971.138428,3250.803304,3390.635742,,,,,,,,
KEGVS6,,1.649999976,35.75,,1488.403442,1717.217896,1915.092977,2014.030518,,,,,,,,
KEGVS7,,2.650000095,35.34999847,,2652.145508,3006.272461,3312.516113,3465.637939,,,,,,,,
KEGVS8,,4.949999809,34.84999847,,65.2111969,140.2682037,205.1763357,237.6304016,,,,,,,,
KEGVS9,,-2.349999905,38.75,,111.8960953,207.6681061,290.4902598,331.9013367,,,,,,,,
KEGVS10,,-3.450000048,39.15000153,,30.87397575,59.43862915,84.14089966,96.49203491,,,,,,,,
KEGVS11,,-3.049999952,39.25,,845.9244995,1176.898438,1463.119629,1606.230225,,,,,,,,
KEGVS12,,-0.150000006,39.15000153,,1111.097534,1669.316284,2152.055298,2393.424805,,,,,,,,
KEGVS13,,-1.649999976,41.15000153,,21.20012283,50.98806763,76.74821981,89.6282959,,,,,,,,
KEGVS14,,0.150000006,40.25,,697.4329834,1082.80835,1416.074951,1582.708252,,,,,,,,
KEGVS15,,1.25,40.65000153,,130.2957306,283.5481567,416.0784709,482.3436279,,,,,,,,
KEGVS16,,3.950000048,41.75,,1043.760132,1358.624634,1630.914673,1767.059692,,,,,,,,
KEGVS17,,-1.149999976,35.15000153,,415.7259827,544.0563965,655.0345459,710.5236206,,,,,,,,
KEGVS18,,-1.049999952,34.45000076,,112.2462845,158.743042,198.9527283,219.0575714,,,,,,,,
KEGVS19,,-0.449999988,35.15000153,,652.6843262,938.8914185,1186.398865,1310.152588,,,,,,,,
KEGVS20,,0.550000012,34.75,,1602.301392,1900.765381,2158.872477,2287.926025,,,,,,,,
KEGVS21,,0.75,38.04999924,,852.0814209,1282.195557,1654.151693,1840.129761,,,,,,,,
KEGVS22,,-2.349999905,37.54999924,,58.80504608,102.6819611,140.6260427,159.5980835,,,,,,,,
KEGVS23,,-2.25,38.04999924,,182.6540833,324.6861572,447.5133057,508.9268799,,,,,,,,
DWRM1,R. Manafwa at Butaleja,0.95,33.95,841,,841,,,,,,,,,,
DWRM2,R. Sio,0.25,34.05,92,,92,,,,,,,,,,
DWRM3,R. Mpologoma at Budumba,0.75,33.75,427,,427,,,,,,,,,,
DWRM7,R. Muzizi,0.85,30.75,21,,21,,,,,,,,,,
DWRM9,R. Mitano,-0.75,29.75,104,,104,,,,,,,,,,
DWRM10,R. Mayanja,0.65,32.15,84,,84,,,,,,,,,,
DWRM12,R. Nkusi,1.15,30.95,28,,28,,,,,,,,,,
DWRM14,Akokoro at Uganda Gauge,1.75,33.85,100,,100,,,,,,,,,,
